[
  {
    "name": "Abeytas",
    "slug": "abeytas-nm",
    "county": "Socorro",
    "center": "34.4652,-106.8137",
    "lat": 34.4652,
    "lng": -106.8137,
    "region": "Central New Mexico - Socorro Area"
  },
  {
    "name": "Abiquiu",
    "slug": "abiquiu-nm",
    "county": "Rio Arriba",
    "center": "36.2017,-106.3238",
    "lat": 36.2017,
    "lng": -106.3238,
    "region": "Northern New Mexico - Chama/Dulce Area"
  },
  {
    "name": "Acomita Lake",
    "slug": "acomita-lake-nm",
    "county": "Cibola",
    "center": "35.0658,-107.6165",
    "lat": 35.0658,
    "lng": -107.6165,
    "region": "Western New Mexico - Gallup Area"
  },
  {
    "name": "Adelino",
    "slug": "adelino-nm",
    "county": "Valencia",
    "center": "34.7064,-106.7318",
    "lat": 34.7064,
    "lng": -106.7318,
    "region": "Greater Albuquerque Area"
  },
  {
    "name": "Agua Fria",
    "slug": "agua-fria-nm",
    "county": "Santa Fe",
    "center": "35.6615,-106.0149",
    "lat": 35.6615,
    "lng": -106.0149,
    "region": "Santa Fe/Las Vegas Region"
  },
  {
    "name": "Alamillo",
    "slug": "alamillo-nm",
    "county": "Socorro",
    "center": "34.2519,-106.9158",
    "lat": 34.2519,
    "lng": -106.9158,
    "region": "Central New Mexico - Socorro Area"
  },
  {
    "name": "Alamo",
    "slug": "alamo-nm",
    "county": "Socorro",
    "center": "34.4184,-107.5125",
    "lat": 34.4184,
    "lng": -107.5125,
    "region": "Central New Mexico - Socorro Area"
  },
  {
    "name": "Alamogordo",
    "slug": "alamogordo-nm",
    "county": "Otero",
    "center": "32.8837,-105.9625",
    "lat": 32.8837,
    "lng": -105.9625,
    "region": "Southern New Mexico - Las Cruces Area"
  },
  {
    "name": "Albuquerque",
    "slug": "albuquerque-nm",
    "county": "Bernalillo",
    "center": "35.1054,-106.6465",
    "lat": 35.1054,
    "lng": -106.6465,
    "region": "Greater Albuquerque Area"
  },
  {
    "name": "Alcalde",
    "slug": "alcalde-nm",
    "county": "Rio Arriba",
    "center": "36.0854,-106.0575",
    "lat": 36.0854,
    "lng": -106.0575,
    "region": "Santa Fe/Las Vegas Region"
  },
  {
    "name": "Algodones",
    "slug": "algodones-nm",
    "county": "Sandoval",
    "center": "35.3804,-106.4731",
    "lat": 35.3804,
    "lng": -106.4731,
    "region": "Greater Albuquerque Area"
  },
  {
    "name": "Alma",
    "slug": "alma-nm",
    "county": "Catron",
    "center": "33.3817,-108.8995",
    "lat": 33.3817,
    "lng": -108.8995,
    "region": "Southwest New Mexico - Silver City Area"
  },
  {
    "name": "Angel Fire",
    "slug": "angel-fire-nm",
    "county": "Colfax",
    "center": "36.3821,-105.2718",
    "lat": 36.3821,
    "lng": -105.2718,
    "region": "North Central New Mexico - Taos Area"
  },
  {
    "name": "Angustura",
    "slug": "angustura-nm",
    "county": "San Juan",
    "center": "36.7138,-107.9154",
    "lat": 36.7138,
    "lng": -107.9154,
    "region": "Northwest New Mexico - Farmington Area"
  },
  {
    "name": "Animas",
    "slug": "animas-nm",
    "county": "Hidalgo",
    "center": "31.9449,-108.8065",
    "lat": 31.9449,
    "lng": -108.8065,
    "region": "Southwest New Mexico - Silver City Area"
  },
  {
    "name": "Anthony",
    "slug": "anthony-nm",
    "county": "Doña Ana",
    "center": "32.0131,-106.5984",
    "lat": 32.0131,
    "lng": -106.5984,
    "region": "Southern New Mexico - Las Cruces Area"
  },
  {
    "name": "Anton Chico",
    "slug": "anton-chico-nm",
    "county": "Guadalupe",
    "center": "35.1948,-105.1439",
    "lat": 35.1948,
    "lng": -105.1439,
    "region": ""
  },
  {
    "name": "Anzac Village",
    "slug": "anzac-village-nm",
    "county": "Cibola",
    "center": "35.0624,-107.7416",
    "lat": 35.0624,
    "lng": -107.7416,
    "region": "Western New Mexico - Gallup Area"
  },
  {
    "name": "Apache Creek",
    "slug": "apache-creek-nm",
    "county": "Catron",
    "center": "33.8486,-108.6141",
    "lat": 33.8486,
    "lng": -108.6141,
    "region": ""
  },
  {
    "name": "Aragon",
    "slug": "aragon-nm",
    "county": "Catron",
    "center": "33.8899,-108.5201",
    "lat": 33.8899,
    "lng": -108.5201,
    "region": ""
  },
  {
    "name": "Arenas Valley",
    "slug": "arenas-valley-nm",
    "county": "Grant",
    "center": "32.7765,-108.203",
    "lat": 32.7765,
    "lng": -108.203,
    "region": "Southwest New Mexico - Silver City Area"
  },
  {
    "name": "Arrey",
    "slug": "arrey-nm",
    "county": "Sierra",
    "center": "32.8472,-107.3204",
    "lat": 32.8472,
    "lng": -107.3204,
    "region": "Southern New Mexico - Las Cruces Area"
  },
  {
    "name": "Arroyo Hondo",
    "slug": "arroyo-hondo-nm",
    "county": "Santa Fe",
    "center": "35.6103,-105.945",
    "lat": 35.6103,
    "lng": -105.945,
    "region": "Santa Fe/Las Vegas Region"
  },
  {
    "name": "Arroyo Hondo",
    "slug": "arroyo-hondo-nm",
    "county": "Taos",
    "center": "36.5346,-105.6665",
    "lat": 36.5346,
    "lng": -105.6665,
    "region": "North Central New Mexico - Taos Area"
  },
  {
    "name": "Arroyo Seco",
    "slug": "arroyo-seco-nm",
    "county": "Taos",
    "center": "36.5215,-105.5861",
    "lat": 36.5215,
    "lng": -105.5861,
    "region": "North Central New Mexico - Taos Area"
  },
  {
    "name": "Artesia",
    "slug": "artesia-nm",
    "county": "Eddy",
    "center": "32.8497,-104.4268",
    "lat": 32.8497,
    "lng": -104.4268,
    "region": "Southeast New Mexico - Roswell / Carlsbad Area"
  },
  {
    "name": "Atoka",
    "slug": "atoka-nm",
    "county": "Eddy",
    "center": "32.7783,-104.3931",
    "lat": 32.7783,
    "lng": -104.3931,
    "region": "Southeast New Mexico - Roswell / Carlsbad Area"
  },
  {
    "name": "Aztec",
    "slug": "aztec-nm",
    "county": "San Juan",
    "center": "36.8225,-107.971",
    "lat": 36.8225,
    "lng": -107.971,
    "region": "Northwest New Mexico - Farmington Area"
  },
  {
    "name": "Barton",
    "slug": "barton-nm",
    "county": "Bernalillo",
    "center": "35.0653,-106.2569",
    "lat": 35.0653,
    "lng": -106.2569,
    "region": "Greater Albuquerque Area"
  },
  {
    "name": "Bayard",
    "slug": "bayard-nm",
    "county": "Grant",
    "center": "32.7579,-108.1337",
    "lat": 32.7579,
    "lng": -108.1337,
    "region": "Southwest New Mexico - Silver City Area"
  },
  {
    "name": "Becenti",
    "slug": "becenti-nm",
    "county": "McKinley",
    "center": "35.8123,-108.1708",
    "lat": 35.8123,
    "lng": -108.1708,
    "region": "Western New Mexico - Gallup Area"
  },
  {
    "name": "Beclabito",
    "slug": "beclabito-nm",
    "county": "San Juan",
    "center": "36.8335,-109.004",
    "lat": 36.8335,
    "lng": -109.004,
    "region": "Northwest New Mexico - Farmington Area"
  },
  {
    "name": "Belen",
    "slug": "belen-nm",
    "county": "Valencia",
    "center": "34.7115,-106.7986",
    "lat": 34.7115,
    "lng": -106.7986,
    "region": "Greater Albuquerque Area"
  },
  {
    "name": "Bent",
    "slug": "bent-nm",
    "county": "Otero",
    "center": "33.1473,-105.8589",
    "lat": 33.1473,
    "lng": -105.8589,
    "region": "Southern New Mexico - Las Cruces Area"
  },
  {
    "name": "Berino",
    "slug": "berino-nm",
    "county": "Doña Ana",
    "center": "32.069,-106.6221",
    "lat": 32.069,
    "lng": -106.6221,
    "region": "Southern New Mexico - Las Cruces Area"
  },
  {
    "name": "Bernalillo",
    "slug": "bernalillo-nm",
    "county": "Sandoval",
    "center": "35.3127,-106.5537",
    "lat": 35.3127,
    "lng": -106.5537,
    "region": "Greater Albuquerque Area"
  },
  {
    "name": "Bibo",
    "slug": "bibo-nm",
    "county": "Cibola",
    "center": "35.1732,-107.4034",
    "lat": 35.1732,
    "lng": -107.4034,
    "region": "Western New Mexico - Gallup Area"
  },
  {
    "name": "Black Hat",
    "slug": "black-hat-nm",
    "county": "McKinley",
    "center": "35.6311,-108.9641",
    "lat": 35.6311,
    "lng": -108.9641,
    "region": "Western New Mexico - Gallup Area"
  },
  {
    "name": "Black Rock",
    "slug": "black-rock-nm",
    "county": "McKinley",
    "center": "35.0835,-108.7975",
    "lat": 35.0835,
    "lng": -108.7975,
    "region": "Western New Mexico - Gallup Area"
  },
  {
    "name": "Blanco",
    "slug": "blanco-nm",
    "county": "San Juan",
    "center": "36.7406,-107.806",
    "lat": 36.7406,
    "lng": -107.806,
    "region": "Northwest New Mexico - Farmington Area"
  },
  {
    "name": "Bloomfield",
    "slug": "bloomfield-nm",
    "county": "San Juan",
    "center": "36.7401,-107.9734",
    "lat": 36.7401,
    "lng": -107.9734,
    "region": "Northwest New Mexico - Farmington Area"
  },
  {
    "name": "Bluewater",
    "slug": "bluewater-nm",
    "county": "McKinley",
    "center": "35.3243,-108.206",
    "lat": 35.3243,
    "lng": -108.206,
    "region": "Western New Mexico - Gallup Area"
  },
  {
    "name": "Bluewater Village",
    "slug": "bluewater-village-nm",
    "county": "Cibola",
    "center": "35.2464,-107.9676",
    "lat": 35.2464,
    "lng": -107.9676,
    "region": "Western New Mexico - Gallup Area"
  },
  {
    "name": "Boles Acres",
    "slug": "boles-acres-nm",
    "county": "Otero",
    "center": "32.8198,-105.978",
    "lat": 32.8198,
    "lng": -105.978,
    "region": "Southern New Mexico - Las Cruces Area"
  },
  {
    "name": "Borrego Pass",
    "slug": "borrego-pass-nm",
    "county": "McKinley",
    "center": "35.5664,-108.0165",
    "lat": 35.5664,
    "lng": -108.0165,
    "region": "Western New Mexico - Gallup Area"
  },
  {
    "name": "Bosque Farms",
    "slug": "bosque-farms-nm",
    "county": "Valencia",
    "center": "34.8539,-106.7011",
    "lat": 34.8539,
    "lng": -106.7011,
    "region": "Greater Albuquerque Area"
  },
  {
    "name": "Brazos",
    "slug": "brazos-nm",
    "county": "Rio Arriba",
    "center": "36.7528,-106.5598",
    "lat": 36.7528,
    "lng": -106.5598,
    "region": "Northern New Mexico - Chama/Dulce Area"
  },
  {
    "name": "Brimhall Nizhoni",
    "slug": "brimhall-nizhoni-nm",
    "county": "McKinley",
    "center": "35.7785,-108.6322",
    "lat": 35.7785,
    "lng": -108.6322,
    "region": "Western New Mexico - Gallup Area"
  },
  {
    "name": "Broadview",
    "slug": "broadview-nm",
    "county": "Cibola",
    "center": "35.2257,-107.8761",
    "lat": 35.2257,
    "lng": -107.8761,
    "region": "Western New Mexico - Gallup Area"
  },
  {
    "name": "Buckhorn",
    "slug": "buckhorn-nm",
    "county": "Grant",
    "center": "33.0315,-108.6944",
    "lat": 33.0315,
    "lng": -108.6944,
    "region": "Southwest New Mexico - Silver City Area"
  },
  {
    "name": "Butterfield Park",
    "slug": "butterfield-park-nm",
    "county": "Doña Ana",
    "center": "32.4052,-106.6457",
    "lat": 32.4052,
    "lng": -106.6457,
    "region": "Southern New Mexico - Las Cruces Area"
  },
  {
    "name": "Caballo",
    "slug": "caballo-nm",
    "county": "Sierra",
    "center": "32.9806,-107.3075",
    "lat": 32.9806,
    "lng": -107.3075,
    "region": "Southern New Mexico - Las Cruces Area"
  },
  {
    "name": "Cañada de los Alamos",
    "slug": "cañada de los-alamos-nm",
    "county": "Santa Fe",
    "center": "35.5927,-105.8597",
    "lat": 35.5927,
    "lng": -105.8597,
    "region": "Santa Fe/Las Vegas Region"
  },
  {
    "name": "Candy Kitchen",
    "slug": "candy-kitchen-nm",
    "county": "Cibola",
    "center": "34.912,-108.4929",
    "lat": 34.912,
    "lng": -108.4929,
    "region": "Western New Mexico - Gallup Area"
  },
  {
    "name": "Canjilon",
    "slug": "canjilon-nm",
    "county": "Rio Arriba",
    "center": "36.484,-106.4334",
    "lat": 36.484,
    "lng": -106.4334,
    "region": "Northern New Mexico - Chama/Dulce Area"
  },
  {
    "name": "Cannon AFB",
    "slug": "cannon-afb-nm",
    "county": "Curry",
    "center": "34.3885,-103.3185",
    "lat": 34.3885,
    "lng": -103.3185,
    "region": "New Mexico Border Region - Clovis / Portales Area"
  },
  {
    "name": "Cañon",
    "slug": "cañon-nm",
    "county": "Sandoval",
    "center": "35.6718,-106.7527",
    "lat": 35.6718,
    "lng": -106.7527,
    "region": "Greater Albuquerque Area"
  },
  {
    "name": "Cañoncito",
    "slug": "cañoncito-nm",
    "county": "Santa Fe",
    "center": "35.5388,-105.8391",
    "lat": 35.5388,
    "lng": -105.8391,
    "region": "Santa Fe/Las Vegas Region"
  },
  {
    "name": "Cañones",
    "slug": "cañones-nm",
    "county": "Rio Arriba",
    "center": "36.1768,-106.4244",
    "lat": 36.1768,
    "lng": -106.4244,
    "region": "Northern New Mexico - Chama/Dulce Area"
  },
  {
    "name": "Canova",
    "slug": "canova-nm",
    "county": "Rio Arriba",
    "center": "36.1649,-105.9857",
    "lat": 36.1649,
    "lng": -105.9857,
    "region": "Santa Fe/Las Vegas Region"
  },
  {
    "name": "Capitan",
    "slug": "capitan-nm",
    "county": "Lincoln",
    "center": "33.5393,-105.5983",
    "lat": 33.5393,
    "lng": -105.5983,
    "region": "Southern New Mexico - Las Cruces Area"
  },
  {
    "name": "Capulin",
    "slug": "capulin-nm",
    "county": "Union",
    "center": "36.7445,-103.9958",
    "lat": 36.7445,
    "lng": -103.9958,
    "region": "Northeast New Mexico - Raton / Clayton Area"
  },
  {
    "name": "Carlsbad",
    "slug": "carlsbad-nm",
    "county": "Eddy",
    "center": "32.401,-104.2388",
    "lat": 32.401,
    "lng": -104.2388,
    "region": "Southeast New Mexico - Roswell / Carlsbad Area"
  },
  {
    "name": "Carnuel",
    "slug": "carnuel-nm",
    "county": "Bernalillo",
    "center": "35.0609,-106.4587",
    "lat": 35.0609,
    "lng": -106.4587,
    "region": "Greater Albuquerque Area"
  },
  {
    "name": "Carrizozo",
    "slug": "carrizozo-nm",
    "county": "Lincoln",
    "center": "33.643299999999996,-105.8411",
    "lat": 33.643299999999996,
    "lng": -105.8411,
    "region": ""
  },
  {
    "name": "Casa Colorada",
    "slug": "casa-colorada-nm",
    "county": "Valencia",
    "center": "34.5534,-106.742",
    "lat": 34.5534,
    "lng": -106.742,
    "region": "Central New Mexico - Socorro Area"
  },
  {
    "name": "Casas Adobes",
    "slug": "casas-adobes-nm",
    "county": "Grant",
    "center": "32.8095,-107.9391",
    "lat": 32.8095,
    "lng": -107.9391,
    "region": "Southwest New Mexico - Silver City Area"
  },
  {
    "name": "Catalpa Canyon",
    "slug": "catalpa-canyon-nm",
    "county": "McKinley",
    "center": "35.4942,-108.7206",
    "lat": 35.4942,
    "lng": -108.7206,
    "region": "Western New Mexico - Gallup Area"
  },
  {
    "name": "Causey",
    "slug": "causey-nm",
    "county": "Roosevelt",
    "center": "33.8607,-103.1066",
    "lat": 33.8607,
    "lng": -103.1066,
    "region": "New Mexico Border Region - Clovis / Portales Area"
  },
  {
    "name": "Cedar Crest",
    "slug": "cedar-crest-nm",
    "county": "Bernalillo",
    "center": "35.1114,-106.3802",
    "lat": 35.1114,
    "lng": -106.3802,
    "region": "Greater Albuquerque Area"
  },
  {
    "name": "Cedar Grove",
    "slug": "cedar-grove-nm",
    "county": "Santa Fe",
    "center": "35.1788,-106.1728",
    "lat": 35.1788,
    "lng": -106.1728,
    "region": ""
  },
  {
    "name": "Cedar Hill",
    "slug": "cedar-hill-nm",
    "county": "San Juan",
    "center": "36.9424,-107.8862",
    "lat": 36.9424,
    "lng": -107.8862,
    "region": "Northwest New Mexico - Farmington Area"
  },
  {
    "name": "Cedro",
    "slug": "cedro-nm",
    "county": "Bernalillo",
    "center": "35.018,-106.3508",
    "lat": 35.018,
    "lng": -106.3508,
    "region": "Greater Albuquerque Area"
  },
  {
    "name": "Center Point",
    "slug": "center-point-nm",
    "county": "San Juan",
    "center": "36.872,-107.9551",
    "lat": 36.872,
    "lng": -107.9551,
    "region": "Northwest New Mexico - Farmington Area"
  },
  {
    "name": "Chama",
    "slug": "chama-nm",
    "county": "Rio Arriba",
    "center": "36.8931,-106.5843",
    "lat": 36.8931,
    "lng": -106.5843,
    "region": "Northern New Mexico - Chama/Dulce Area"
  },
  {
    "name": "Chamberino",
    "slug": "chamberino-nm",
    "county": "Doña Ana",
    "center": "32.0364,-106.6776",
    "lat": 32.0364,
    "lng": -106.6776,
    "region": "Southern New Mexico - Las Cruces Area"
  },
  {
    "name": "Chamisal",
    "slug": "chamisal-nm",
    "county": "Taos",
    "center": "36.1725,-105.7459",
    "lat": 36.1725,
    "lng": -105.7459,
    "region": "North Central New Mexico - Taos Area"
  },
  {
    "name": "Chamita",
    "slug": "chamita-nm",
    "county": "Rio Arriba",
    "center": "36.0706,-106.0974",
    "lat": 36.0706,
    "lng": -106.0974,
    "region": "Santa Fe/Las Vegas Region"
  },
  {
    "name": "Chamizal",
    "slug": "chamizal-nm",
    "county": "Socorro",
    "center": "34.2182,-106.9152",
    "lat": 34.2182,
    "lng": -106.9152,
    "region": "Central New Mexico - Socorro Area"
  },
  {
    "name": "Chaparral",
    "slug": "chaparral-nm",
    "county": "Doña Ana",
    "center": "32.0442,-106.406",
    "lat": 32.0442,
    "lng": -106.406,
    "region": "Southern New Mexico - Las Cruces Area"
  },
  {
    "name": "Chical",
    "slug": "chical-nm",
    "county": "Valencia",
    "center": "34.8658,-106.6671",
    "lat": 34.8658,
    "lng": -106.6671,
    "region": "Greater Albuquerque Area"
  },
  {
    "name": "Chili",
    "slug": "chili-nm",
    "county": "Rio Arriba",
    "center": "36.1027,-106.1529",
    "lat": 36.1027,
    "lng": -106.1529,
    "region": "Santa Fe/Las Vegas Region"
  },
  {
    "name": "Chilili",
    "slug": "chilili-nm",
    "county": "Bernalillo",
    "center": "34.8974,-106.2332",
    "lat": 34.8974,
    "lng": -106.2332,
    "region": ""
  },
  {
    "name": "Chimayo",
    "slug": "chimayo-nm",
    "county": "Santa Fe",
    "center": "35.9981,-105.9413",
    "lat": 35.9981,
    "lng": -105.9413,
    "region": "Santa Fe/Las Vegas Region"
  },
  {
    "name": "Chupadero",
    "slug": "chupadero-nm",
    "county": "Santa Fe",
    "center": "35.8144,-105.9198",
    "lat": 35.8144,
    "lng": -105.9198,
    "region": "Santa Fe/Las Vegas Region"
  },
  {
    "name": "Church Rock",
    "slug": "church-rock-nm",
    "county": "McKinley",
    "center": "35.5692,-108.573",
    "lat": 35.5692,
    "lng": -108.573,
    "region": "Western New Mexico - Gallup Area"
  },
  {
    "name": "Cimarron",
    "slug": "cimarron-nm",
    "county": "Colfax",
    "center": "36.5083,-104.9104",
    "lat": 36.5083,
    "lng": -104.9104,
    "region": "North Central New Mexico - Taos Area"
  },
  {
    "name": "City of the Sun",
    "slug": "city of the-sun-nm",
    "county": "Luna",
    "center": "31.8466,-107.6504",
    "lat": 31.8466,
    "lng": -107.6504,
    "region": "Southwest New Mexico - Silver City Area"
  },
  {
    "name": "Clayton",
    "slug": "clayton-nm",
    "county": "Union",
    "center": "36.4426,-103.1574",
    "lat": 36.4426,
    "lng": -103.1574,
    "region": "Northeast New Mexico - Raton / Clayton Area"
  },
  {
    "name": "Cliff",
    "slug": "cliff-nm",
    "county": "Grant",
    "center": "32.966,-108.6176",
    "lat": 32.966,
    "lng": -108.6176,
    "region": "Southwest New Mexico - Silver City Area"
  },
  {
    "name": "Cloudcroft",
    "slug": "cloudcroft-nm",
    "county": "Otero",
    "center": "32.9532,-105.7326",
    "lat": 32.9532,
    "lng": -105.7326,
    "region": "Southern New Mexico - Las Cruces Area"
  },
  {
    "name": "Clovis",
    "slug": "clovis-nm",
    "county": "Curry",
    "center": "34.4376,-103.1923",
    "lat": 34.4376,
    "lng": -103.1923,
    "region": "New Mexico Border Region - Clovis / Portales Area"
  },
  {
    "name": "Cobre",
    "slug": "cobre-nm",
    "county": "Grant",
    "center": "32.7804,-108.1106",
    "lat": 32.7804,
    "lng": -108.1106,
    "region": "Southwest New Mexico - Silver City Area"
  },
  {
    "name": "Cochiti",
    "slug": "cochiti-nm",
    "county": "Sandoval",
    "center": "35.6104,-106.3501",
    "lat": 35.6104,
    "lng": -106.3501,
    "region": "Greater Albuquerque Area"
  },
  {
    "name": "Cochiti Lake",
    "slug": "cochiti-lake-nm",
    "county": "Sandoval",
    "center": "35.6478,-106.3425",
    "lat": 35.6478,
    "lng": -106.3425,
    "region": "Greater Albuquerque Area"
  },
  {
    "name": "Columbus",
    "slug": "columbus-nm",
    "county": "Luna",
    "center": "31.8271,-107.6422",
    "lat": 31.8271,
    "lng": -107.6422,
    "region": "Southwest New Mexico - Silver City Area"
  },
  {
    "name": "Conchas Dam",
    "slug": "conchas-dam-nm",
    "county": "San Miguel",
    "center": "35.3623,-104.2042",
    "lat": 35.3623,
    "lng": -104.2042,
    "region": "New Mexico Border Region - Clovis / Portales Area"
  },
  {
    "name": "Conejo",
    "slug": "conejo-nm",
    "county": "Santa Fe",
    "center": "35.6287,-105.9423",
    "lat": 35.6287,
    "lng": -105.9423,
    "region": "Santa Fe/Las Vegas Region"
  },
  {
    "name": "Continental Divide",
    "slug": "continental-divide-nm",
    "county": "McKinley",
    "center": "35.4329,-108.3358",
    "lat": 35.4329,
    "lng": -108.3358,
    "region": "Western New Mexico - Gallup Area"
  },
  {
    "name": "Cordova",
    "slug": "cordova-nm",
    "county": "Rio Arriba",
    "center": "36.0128,-105.8566",
    "lat": 36.0128,
    "lng": -105.8566,
    "region": "Santa Fe/Las Vegas Region"
  },
  {
    "name": "Corona",
    "slug": "corona-nm",
    "county": "Lincoln",
    "center": "34.2501,-105.597",
    "lat": 34.2501,
    "lng": -105.597,
    "region": ""
  },
  {
    "name": "Corrales",
    "slug": "corrales-nm",
    "county": "Sandoval",
    "center": "35.2366,-106.6191",
    "lat": 35.2366,
    "lng": -106.6191,
    "region": "Greater Albuquerque Area"
  },
  {
    "name": "Costilla",
    "slug": "costilla-nm",
    "county": "Taos",
    "center": "36.9786,-105.5353",
    "lat": 36.9786,
    "lng": -105.5353,
    "region": "North Central New Mexico - Taos Area"
  },
  {
    "name": "Cotton City",
    "slug": "cotton-city-nm",
    "county": "Hidalgo",
    "center": "32.1104,-108.8801",
    "lat": 32.1104,
    "lng": -108.8801,
    "region": "Southwest New Mexico - Silver City Area"
  },
  {
    "name": "Coyote",
    "slug": "coyote-nm",
    "county": "Rio Arriba",
    "center": "36.1615,-106.6067",
    "lat": 36.1615,
    "lng": -106.6067,
    "region": "Northern New Mexico - Chama/Dulce Area"
  },
  {
    "name": "Crestview",
    "slug": "crestview-nm",
    "county": "McKinley",
    "center": "35.4878,-108.8574",
    "lat": 35.4878,
    "lng": -108.8574,
    "region": "Western New Mexico - Gallup Area"
  },
  {
    "name": "Crouch Mesa",
    "slug": "crouch-mesa-nm",
    "county": "San Juan",
    "center": "36.748,-108.0853",
    "lat": 36.748,
    "lng": -108.0853,
    "region": "Northwest New Mexico - Farmington Area"
  },
  {
    "name": "Crownpoint",
    "slug": "crownpoint-nm",
    "county": "McKinley",
    "center": "35.7173,-108.1432",
    "lat": 35.7173,
    "lng": -108.1432,
    "region": "Western New Mexico - Gallup Area"
  },
  {
    "name": "Cruzville",
    "slug": "cruzville-nm",
    "county": "Catron",
    "center": "33.81,-108.6684",
    "lat": 33.81,
    "lng": -108.6684,
    "region": ""
  },
  {
    "name": "Crystal",
    "slug": "crystal-nm",
    "county": "San Juan",
    "center": "36.029,-108.9898",
    "lat": 36.029,
    "lng": -108.9898,
    "region": "Western New Mexico - Gallup Area"
  },
  {
    "name": "Cuartelez",
    "slug": "cuartelez-nm",
    "county": "Santa Fe",
    "center": "35.9929,-106.0196",
    "lat": 35.9929,
    "lng": -106.0196,
    "region": "Santa Fe/Las Vegas Region"
  },
  {
    "name": "Cuba",
    "slug": "cuba-nm",
    "county": "Sandoval",
    "center": "36.0146,-106.968",
    "lat": 36.0146,
    "lng": -106.968,
    "region": "Greater Albuquerque Area"
  },
  {
    "name": "Cubero",
    "slug": "cubero-nm",
    "county": "Cibola",
    "center": "35.0904,-107.5261",
    "lat": 35.0904,
    "lng": -107.5261,
    "region": "Western New Mexico - Gallup Area"
  },
  {
    "name": "Cundiyo",
    "slug": "cundiyo-nm",
    "county": "Santa Fe",
    "center": "35.961,-105.901",
    "lat": 35.961,
    "lng": -105.901,
    "region": "Santa Fe/Las Vegas Region"
  },
  {
    "name": "Cuyamungue",
    "slug": "cuyamungue-nm",
    "county": "Santa Fe",
    "center": "35.8648,-106.0096",
    "lat": 35.8648,
    "lng": -106.0096,
    "region": "Santa Fe/Las Vegas Region"
  },
  {
    "name": "Cuyamungue Grant",
    "slug": "cuyamungue-grant-nm",
    "county": "Santa Fe",
    "center": "35.8464,-105.9948",
    "lat": 35.8464,
    "lng": -105.9948,
    "region": "Santa Fe/Las Vegas Region"
  },
  {
    "name": "Datil",
    "slug": "datil-nm",
    "county": "Catron",
    "center": "34.1423,-107.8424",
    "lat": 34.1423,
    "lng": -107.8424,
    "region": "Central New Mexico - Socorro Area"
  },
  {
    "name": "Deer Canyon",
    "slug": "deer-canyon-nm",
    "county": "Torrance",
    "center": "34.4436,-106.2607",
    "lat": 34.4436,
    "lng": -106.2607,
    "region": "Central New Mexico - Socorro Area"
  },
  {
    "name": "Deming",
    "slug": "deming-nm",
    "county": "Luna",
    "center": "32.2631,-107.7525",
    "lat": 32.2631,
    "lng": -107.7525,
    "region": "Southwest New Mexico - Silver City Area"
  },
  {
    "name": "Des Moines",
    "slug": "des-moines-nm",
    "county": "Union",
    "center": "36.7614,-103.8342",
    "lat": 36.7614,
    "lng": -103.8342,
    "region": "Northeast New Mexico - Raton / Clayton Area"
  },
  {
    "name": "Dexter",
    "slug": "dexter-nm",
    "county": "Chaves",
    "center": "33.1954,-104.3687",
    "lat": 33.1954,
    "lng": -104.3687,
    "region": "Southeast New Mexico - Roswell / Carlsbad Area"
  },
  {
    "name": "Dixon",
    "slug": "dixon-nm",
    "county": "Rio Arriba",
    "center": "36.1886,-105.8784",
    "lat": 36.1886,
    "lng": -105.8784,
    "region": "North Central New Mexico - Taos Area"
  },
  {
    "name": "Doña Ana",
    "slug": "doña-ana-nm",
    "county": "Doña Ana",
    "center": "32.394,-106.8177",
    "lat": 32.394,
    "lng": -106.8177,
    "region": "Southern New Mexico - Las Cruces Area"
  },
  {
    "name": "Dora",
    "slug": "dora-nm",
    "county": "Roosevelt",
    "center": "33.9334,-103.3369",
    "lat": 33.9334,
    "lng": -103.3369,
    "region": "New Mexico Border Region - Clovis / Portales Area"
  },
  {
    "name": "Dulce",
    "slug": "dulce-nm",
    "county": "Rio Arriba",
    "center": "36.9399,-107.0049",
    "lat": 36.9399,
    "lng": -107.0049,
    "region": "Northern New Mexico - Chama/Dulce Area"
  },
  {
    "name": "Duran",
    "slug": "duran-nm",
    "county": "Torrance",
    "center": "34.4636,-105.3807",
    "lat": 34.4636,
    "lng": -105.3807,
    "region": ""
  },
  {
    "name": "Eagle Nest",
    "slug": "eagle-nest-nm",
    "county": "Colfax",
    "center": "36.5496,-105.2591",
    "lat": 36.5496,
    "lng": -105.2591,
    "region": "North Central New Mexico - Taos Area"
  },
  {
    "name": "East Pecos",
    "slug": "east-pecos-nm",
    "county": "San Miguel",
    "center": "35.5765,-105.65",
    "lat": 35.5765,
    "lng": -105.65,
    "region": "Santa Fe/Las Vegas Region"
  },
  {
    "name": "Edgewood",
    "slug": "edgewood-nm",
    "county": "Santa Fe",
    "center": "35.1318,-106.2151",
    "lat": 35.1318,
    "lng": -106.2151,
    "region": ""
  },
  {
    "name": "El Cerro",
    "slug": "el-cerro-nm",
    "county": "Valencia",
    "center": "34.7807,-106.6955",
    "lat": 34.7807,
    "lng": -106.6955,
    "region": "Greater Albuquerque Area"
  },
  {
    "name": "El Cerro Mission",
    "slug": "el cerro-mission-nm",
    "county": "Valencia",
    "center": "34.7688,-106.6447",
    "lat": 34.7688,
    "lng": -106.6447,
    "region": "Greater Albuquerque Area"
  },
  {
    "name": "El Duende",
    "slug": "el-duende-nm",
    "county": "Rio Arriba",
    "center": "36.0738,-106.1269",
    "lat": 36.0738,
    "lng": -106.1269,
    "region": "Santa Fe/Las Vegas Region"
  },
  {
    "name": "El Morro Valley",
    "slug": "el morro-valley-nm",
    "county": "Cibola",
    "center": "35.0362,-108.3225",
    "lat": 35.0362,
    "lng": -108.3225,
    "region": "Western New Mexico - Gallup Area"
  },
  {
    "name": "El Rancho",
    "slug": "el-rancho-nm",
    "county": "Santa Fe",
    "center": "35.8928,-106.0856",
    "lat": 35.8928,
    "lng": -106.0856,
    "region": "Santa Fe/Las Vegas Region"
  },
  {
    "name": "El Rito",
    "slug": "el-rito-nm",
    "county": "Rio Arriba",
    "center": "36.338,-106.1844",
    "lat": 36.338,
    "lng": -106.1844,
    "region": "North Central New Mexico - Taos Area"
  },
  {
    "name": "El Valle de Arroyo Seco",
    "slug": "el valle de arroyo-seco-nm",
    "county": "Santa Fe",
    "center": "35.9526,-106.026",
    "lat": 35.9526,
    "lng": -106.026,
    "region": "Santa Fe/Las Vegas Region"
  },
  {
    "name": "Eldorado at Santa Fe",
    "slug": "eldorado at santa-fe-nm",
    "county": "Santa Fe",
    "center": "35.5273,-105.934",
    "lat": 35.5273,
    "lng": -105.934,
    "region": "Santa Fe/Las Vegas Region"
  },
  {
    "name": "Elephant Butte",
    "slug": "elephant-butte-nm",
    "county": "Sierra",
    "center": "33.1806,-107.2269",
    "lat": 33.1806,
    "lng": -107.2269,
    "region": "Southern New Mexico - Las Cruces Area"
  },
  {
    "name": "Elida",
    "slug": "elida-nm",
    "county": "Roosevelt",
    "center": "33.9469,-103.6531",
    "lat": 33.9469,
    "lng": -103.6531,
    "region": "New Mexico Border Region - Clovis / Portales Area"
  },
  {
    "name": "Encantado",
    "slug": "encantado-nm",
    "county": "Santa Fe",
    "center": "35.7934,-105.9111",
    "lat": 35.7934,
    "lng": -105.9111,
    "region": "Santa Fe/Las Vegas Region"
  },
  {
    "name": "Encinal",
    "slug": "encinal-nm",
    "county": "Cibola",
    "center": "35.1112,-107.4651",
    "lat": 35.1112,
    "lng": -107.4651,
    "region": "Western New Mexico - Gallup Area"
  },
  {
    "name": "Encino",
    "slug": "encino-nm",
    "county": "Torrance",
    "center": "34.6518,-105.4586",
    "lat": 34.6518,
    "lng": -105.4586,
    "region": ""
  },
  {
    "name": "Ensenada",
    "slug": "ensenada-nm",
    "county": "Rio Arriba",
    "center": "36.731,-106.5368",
    "lat": 36.731,
    "lng": -106.5368,
    "region": "Northern New Mexico - Chama/Dulce Area"
  },
  {
    "name": "Escondida",
    "slug": "escondida-nm",
    "county": "Socorro",
    "center": "34.1012,-106.8974",
    "lat": 34.1012,
    "lng": -106.8974,
    "region": "Central New Mexico - Socorro Area"
  },
  {
    "name": "Escudilla Bonita",
    "slug": "escudilla-bonita-nm",
    "county": "Catron",
    "center": "34.1122,-109.0231",
    "lat": 34.1122,
    "lng": -109.0231,
    "region": ""
  },
  {
    "name": "Española",
    "slug": "española-nm",
    "county": "Rio Arriba",
    "center": "36.0044,-106.0686",
    "lat": 36.0044,
    "lng": -106.0686,
    "region": "Santa Fe/Las Vegas Region"
  },
  {
    "name": "Estancia",
    "slug": "estancia-nm",
    "county": "Torrance",
    "center": "34.7667,-106.0301",
    "lat": 34.7667,
    "lng": -106.0301,
    "region": ""
  },
  {
    "name": "Eunice",
    "slug": "eunice-nm",
    "county": "Lea",
    "center": "32.4461,-103.1986",
    "lat": 32.4461,
    "lng": -103.1986,
    "region": "Southeast New Mexico - Roswell / Carlsbad Area"
  },
  {
    "name": "Fairacres",
    "slug": "fairacres-nm",
    "county": "Doña Ana",
    "center": "32.3047,-106.8367",
    "lat": 32.3047,
    "lng": -106.8367,
    "region": "Southern New Mexico - Las Cruces Area"
  },
  {
    "name": "Farmington",
    "slug": "farmington-nm",
    "county": "San Juan",
    "center": "36.7555,-108.1823",
    "lat": 36.7555,
    "lng": -108.1823,
    "region": "Northwest New Mexico - Farmington Area"
  },
  {
    "name": "Faywood",
    "slug": "faywood-nm",
    "county": "Grant",
    "center": "32.6247,-107.8723",
    "lat": 32.6247,
    "lng": -107.8723,
    "region": "Southwest New Mexico - Silver City Area"
  },
  {
    "name": "Fence Lake",
    "slug": "fence-lake-nm",
    "county": "Cibola",
    "center": "34.6534,-108.6738",
    "lat": 34.6534,
    "lng": -108.6738,
    "region": "Western New Mexico - Gallup Area"
  },
  {
    "name": "Flora Vista",
    "slug": "flora-vista-nm",
    "county": "San Juan",
    "center": "36.804,-108.0876",
    "lat": 36.804,
    "lng": -108.0876,
    "region": "Northwest New Mexico - Farmington Area"
  },
  {
    "name": "Floyd",
    "slug": "floyd-nm",
    "county": "Roosevelt",
    "center": "34.2288,-103.5526",
    "lat": 34.2288,
    "lng": -103.5526,
    "region": "New Mexico Border Region - Clovis / Portales Area"
  },
  {
    "name": "Folsom",
    "slug": "folsom-nm",
    "county": "Union",
    "center": "36.8478,-103.9176",
    "lat": 36.8478,
    "lng": -103.9176,
    "region": "Northeast New Mexico - Raton / Clayton Area"
  },
  {
    "name": "Fort Sumner",
    "slug": "fort-sumner-nm",
    "county": "De Baca",
    "center": "34.479,-104.2332",
    "lat": 34.479,
    "lng": -104.2332,
    "region": "New Mexico Border Region - Clovis / Portales Area"
  },
  {
    "name": "Fort Wingate",
    "slug": "fort-wingate-nm",
    "county": "McKinley",
    "center": "35.4708,-108.5439",
    "lat": 35.4708,
    "lng": -108.5439,
    "region": "Western New Mexico - Gallup Area"
  },
  {
    "name": "Fruitland",
    "slug": "fruitland-nm",
    "county": "San Juan",
    "center": "36.7432,-108.3951",
    "lat": 36.7432,
    "lng": -108.3951,
    "region": "Northwest New Mexico - Farmington Area"
  },
  {
    "name": "Galisteo",
    "slug": "galisteo-nm",
    "county": "Santa Fe",
    "center": "35.3984,-105.9571",
    "lat": 35.3984,
    "lng": -105.9571,
    "region": "Santa Fe/Las Vegas Region"
  },
  {
    "name": "Gallina",
    "slug": "gallina-nm",
    "county": "Rio Arriba",
    "center": "36.2295,-106.8205",
    "lat": 36.2295,
    "lng": -106.8205,
    "region": "Northern New Mexico - Chama/Dulce Area"
  },
  {
    "name": "Gallup",
    "slug": "gallup-nm",
    "county": "McKinley",
    "center": "35.5182,-108.7431",
    "lat": 35.5182,
    "lng": -108.7431,
    "region": "Western New Mexico - Gallup Area"
  },
  {
    "name": "Gamerco",
    "slug": "gamerco-nm",
    "county": "McKinley",
    "center": "35.5699,-108.7641",
    "lat": 35.5699,
    "lng": -108.7641,
    "region": "Western New Mexico - Gallup Area"
  },
  {
    "name": "Garfield",
    "slug": "garfield-nm",
    "county": "Doña Ana",
    "center": "32.7569,-107.2665",
    "lat": 32.7569,
    "lng": -107.2665,
    "region": "Southern New Mexico - Las Cruces Area"
  },
  {
    "name": "Gila",
    "slug": "gila-nm",
    "county": "Grant",
    "center": "32.9485,-108.5762",
    "lat": 32.9485,
    "lng": -108.5762,
    "region": "Southwest New Mexico - Silver City Area"
  },
  {
    "name": "Gila Hot Springs",
    "slug": "gila hot-springs-nm",
    "county": "Grant",
    "center": "33.1902,-108.2045",
    "lat": 33.1902,
    "lng": -108.2045,
    "region": "Southwest New Mexico - Silver City Area"
  },
  {
    "name": "Glen Acres",
    "slug": "glen-acres-nm",
    "county": "Hidalgo",
    "center": "32.375,-108.7162",
    "lat": 32.375,
    "lng": -108.7162,
    "region": "Southwest New Mexico - Silver City Area"
  },
  {
    "name": "Glenwood",
    "slug": "glenwood-nm",
    "county": "Catron",
    "center": "33.3188,-108.8811",
    "lat": 33.3188,
    "lng": -108.8811,
    "region": "Southwest New Mexico - Silver City Area"
  },
  {
    "name": "Glorieta",
    "slug": "glorieta-nm",
    "county": "Santa Fe",
    "center": "35.584,-105.7629",
    "lat": 35.584,
    "lng": -105.7629,
    "region": "Santa Fe/Las Vegas Region"
  },
  {
    "name": "Golden",
    "slug": "golden-nm",
    "county": "Santa Fe",
    "center": "35.2637,-106.223",
    "lat": 35.2637,
    "lng": -106.223,
    "region": ""
  },
  {
    "name": "Golden Acres",
    "slug": "golden-acres-nm",
    "county": "Cibola",
    "center": "35.2112,-107.9182",
    "lat": 35.2112,
    "lng": -107.9182,
    "region": "Western New Mexico - Gallup Area"
  },
  {
    "name": "Grady",
    "slug": "grady-nm",
    "county": "Curry",
    "center": "34.8217,-103.3157",
    "lat": 34.8217,
    "lng": -103.3157,
    "region": "New Mexico Border Region - Clovis / Portales Area"
  },
  {
    "name": "Grants",
    "slug": "grants-nm",
    "county": "Cibola",
    "center": "35.1538,-107.8335",
    "lat": 35.1538,
    "lng": -107.8335,
    "region": "Western New Mexico - Gallup Area"
  },
  {
    "name": "Grenville",
    "slug": "grenville-nm",
    "county": "Union",
    "center": "36.5906,-103.6147",
    "lat": 36.5906,
    "lng": -103.6147,
    "region": "Northeast New Mexico - Raton / Clayton Area"
  },
  {
    "name": "Hachita",
    "slug": "hachita-nm",
    "county": "Grant",
    "center": "31.9153,-108.3253",
    "lat": 31.9153,
    "lng": -108.3253,
    "region": "Southwest New Mexico - Silver City Area"
  },
  {
    "name": "Hagerman",
    "slug": "hagerman-nm",
    "county": "Chaves",
    "center": "33.1146,-104.3284",
    "lat": 33.1146,
    "lng": -104.3284,
    "region": "Southeast New Mexico - Roswell / Carlsbad Area"
  },
  {
    "name": "Hanover",
    "slug": "hanover-nm",
    "county": "Grant",
    "center": "32.8149,-108.0897",
    "lat": 32.8149,
    "lng": -108.0897,
    "region": "Southwest New Mexico - Silver City Area"
  },
  {
    "name": "Happy Valley",
    "slug": "happy-valley-nm",
    "county": "Eddy",
    "center": "32.4236,-104.2903",
    "lat": 32.4236,
    "lng": -104.2903,
    "region": "Southeast New Mexico - Roswell / Carlsbad Area"
  },
  {
    "name": "Hatch",
    "slug": "hatch-nm",
    "county": "Doña Ana",
    "center": "32.6663,-107.1644",
    "lat": 32.6663,
    "lng": -107.1644,
    "region": "Southern New Mexico - Las Cruces Area"
  },
  {
    "name": "Haystack",
    "slug": "haystack-nm",
    "county": "McKinley",
    "center": "35.3612,-107.934",
    "lat": 35.3612,
    "lng": -107.934,
    "region": "Western New Mexico - Gallup Area"
  },
  {
    "name": "Hernandez",
    "slug": "hernandez-nm",
    "county": "Rio Arriba",
    "center": "36.0567,-106.1185",
    "lat": 36.0567,
    "lng": -106.1185,
    "region": "Santa Fe/Las Vegas Region"
  },
  {
    "name": "High Rolls",
    "slug": "high-rolls-nm",
    "county": "Otero",
    "center": "32.9388,-105.8214",
    "lat": 32.9388,
    "lng": -105.8214,
    "region": "Southern New Mexico - Las Cruces Area"
  },
  {
    "name": "Highland Meadows",
    "slug": "highland-meadows-nm",
    "county": "Valencia",
    "center": "34.94,-107.1656",
    "lat": 34.94,
    "lng": -107.1656,
    "region": "Greater Albuquerque Area"
  },
  {
    "name": "Hillsboro",
    "slug": "hillsboro-nm",
    "county": "Sierra",
    "center": "32.9219,-107.5773",
    "lat": 32.9219,
    "lng": -107.5773,
    "region": "Southwest New Mexico - Silver City Area"
  },
  {
    "name": "Hobbs",
    "slug": "hobbs-nm",
    "county": "Lea",
    "center": "32.7281,-103.16",
    "lat": 32.7281,
    "lng": -103.16,
    "region": "Southeast New Mexico - Roswell / Carlsbad Area"
  },
  {
    "name": "Holloman AFB",
    "slug": "holloman-afb-nm",
    "county": "Otero",
    "center": "32.8483,-106.0998",
    "lat": 32.8483,
    "lng": -106.0998,
    "region": "Southern New Mexico - Las Cruces Area"
  },
  {
    "name": "Homer C Jones",
    "slug": "homer c-jones-nm",
    "county": "McKinley",
    "center": "35.3078,-108.0966",
    "lat": 35.3078,
    "lng": -108.0966,
    "region": "Western New Mexico - Gallup Area"
  },
  {
    "name": "Homestead",
    "slug": "homestead-nm",
    "county": "Catron",
    "center": "34.1488,-107.882",
    "lat": 34.1488,
    "lng": -107.882,
    "region": "Central New Mexico - Socorro Area"
  },
  {
    "name": "Hope",
    "slug": "hope-nm",
    "county": "Eddy",
    "center": "32.8159,-104.7371",
    "lat": 32.8159,
    "lng": -104.7371,
    "region": "Southeast New Mexico - Roswell / Carlsbad Area"
  },
  {
    "name": "Hot Springs Landing",
    "slug": "hot springs-landing-nm",
    "county": "Sierra",
    "center": "33.2047,-107.21",
    "lat": 33.2047,
    "lng": -107.21,
    "region": "Southern New Mexico - Las Cruces Area"
  },
  {
    "name": "House",
    "slug": "house-nm",
    "county": "Quay",
    "center": "34.6492,-103.9038",
    "lat": 34.6492,
    "lng": -103.9038,
    "region": "New Mexico Border Region - Clovis / Portales Area"
  },
  {
    "name": "Hurley",
    "slug": "hurley-nm",
    "county": "Grant",
    "center": "32.6982,-108.1321",
    "lat": 32.6982,
    "lng": -108.1321,
    "region": "Southwest New Mexico - Silver City Area"
  },
  {
    "name": "Hyde Park",
    "slug": "hyde-park-nm",
    "county": "Santa Fe",
    "center": "35.7112,-105.8866",
    "lat": 35.7112,
    "lng": -105.8866,
    "region": "Santa Fe/Las Vegas Region"
  },
  {
    "name": "Indian Hills",
    "slug": "indian-hills-nm",
    "county": "Torrance",
    "center": "34.9832,-106.1398",
    "lat": 34.9832,
    "lng": -106.1398,
    "region": ""
  },
  {
    "name": "Isleta",
    "slug": "isleta-nm",
    "county": "Bernalillo",
    "center": "34.9042,-106.6992",
    "lat": 34.9042,
    "lng": -106.6992,
    "region": "Greater Albuquerque Area"
  },
  {
    "name": "Iyanbito",
    "slug": "iyanbito-nm",
    "county": "McKinley",
    "center": "35.516,-108.4878",
    "lat": 35.516,
    "lng": -108.4878,
    "region": "Western New Mexico - Gallup Area"
  },
  {
    "name": "Jacona",
    "slug": "jacona-nm",
    "county": "Santa Fe",
    "center": "35.8887,-106.0386",
    "lat": 35.8887,
    "lng": -106.0386,
    "region": "Santa Fe/Las Vegas Region"
  },
  {
    "name": "Jaconita",
    "slug": "jaconita-nm",
    "county": "Santa Fe",
    "center": "35.8857,-106.0611",
    "lat": 35.8857,
    "lng": -106.0611,
    "region": "Santa Fe/Las Vegas Region"
  },
  {
    "name": "Jal",
    "slug": "jal-nm",
    "county": "Lea",
    "center": "32.1148,-103.19",
    "lat": 32.1148,
    "lng": -103.19,
    "region": "Southeast New Mexico - Roswell / Carlsbad Area"
  },
  {
    "name": "Jamestown",
    "slug": "jamestown-nm",
    "county": "McKinley",
    "center": "35.4692,-108.4396",
    "lat": 35.4692,
    "lng": -108.4396,
    "region": "Western New Mexico - Gallup Area"
  },
  {
    "name": "Jarales",
    "slug": "jarales-nm",
    "county": "Valencia",
    "center": "34.6147,-106.7631",
    "lat": 34.6147,
    "lng": -106.7631,
    "region": "Central New Mexico - Socorro Area"
  },
  {
    "name": "Jemez Pueblo",
    "slug": "jemez-pueblo-nm",
    "county": "Sandoval",
    "center": "35.6066,-106.7333",
    "lat": 35.6066,
    "lng": -106.7333,
    "region": "Greater Albuquerque Area"
  },
  {
    "name": "Jemez Springs",
    "slug": "jemez-springs-nm",
    "county": "Sandoval",
    "center": "35.7732,-106.6909",
    "lat": 35.7732,
    "lng": -106.6909,
    "region": "Greater Albuquerque Area"
  },
  {
    "name": "Keeler Farm",
    "slug": "keeler-farm-nm",
    "county": "Luna",
    "center": "32.3161,-107.7602",
    "lat": 32.3161,
    "lng": -107.7602,
    "region": "Southwest New Mexico - Silver City Area"
  },
  {
    "name": "Kingston",
    "slug": "kingston-nm",
    "county": "Sierra",
    "center": "32.9173,-107.7097",
    "lat": 32.9173,
    "lng": -107.7097,
    "region": "Southwest New Mexico - Silver City Area"
  },
  {
    "name": "Kirtland",
    "slug": "kirtland-nm",
    "county": "San Juan",
    "center": "36.7502,-108.3588",
    "lat": 36.7502,
    "lng": -108.3588,
    "region": "Northwest New Mexico - Farmington Area"
  },
  {
    "name": "Kirtland AFB",
    "slug": "kirtland-afb-nm",
    "county": "Bernalillo",
    "center": "35.0497,-106.5599",
    "lat": 35.0497,
    "lng": -106.5599,
    "region": "Greater Albuquerque Area"
  },
  {
    "name": "La Bajada",
    "slug": "la-bajada-nm",
    "county": "Santa Fe",
    "center": "35.5565,-106.2436",
    "lat": 35.5565,
    "lng": -106.2436,
    "region": "Santa Fe/Las Vegas Region"
  },
  {
    "name": "La Boca",
    "slug": "la-boca-nm",
    "county": "San Juan",
    "center": "36.9945,-107.6065",
    "lat": 36.9945,
    "lng": -107.6065,
    "region": "Northwest New Mexico - Farmington Area"
  },
  {
    "name": "La Cienega",
    "slug": "la-cienega-nm",
    "county": "Santa Fe",
    "center": "35.5794,-106.113",
    "lat": 35.5794,
    "lng": -106.113,
    "region": "Santa Fe/Las Vegas Region"
  },
  {
    "name": "La Cueva",
    "slug": "la-cueva-nm",
    "county": "Santa Fe",
    "center": "35.5776,-105.7339",
    "lat": 35.5776,
    "lng": -105.7339,
    "region": "Santa Fe/Las Vegas Region"
  },
  {
    "name": "La Cueva",
    "slug": "la-cueva-nm",
    "county": "Sandoval",
    "center": "35.8694,-106.6485",
    "lat": 35.8694,
    "lng": -106.6485,
    "region": "Greater Albuquerque Area"
  },
  {
    "name": "La Hacienda",
    "slug": "la-hacienda-nm",
    "county": "Luna",
    "center": "32.206,-107.725",
    "lat": 32.206,
    "lng": -107.725,
    "region": "Southwest New Mexico - Silver City Area"
  },
  {
    "name": "La Huerta",
    "slug": "la-huerta-nm",
    "county": "Eddy",
    "center": "32.4489,-104.2225",
    "lat": 32.4489,
    "lng": -104.2225,
    "region": "Southeast New Mexico - Roswell / Carlsbad Area"
  },
  {
    "name": "La Jara",
    "slug": "la-jara-nm",
    "county": "Sandoval",
    "center": "36.1055,-106.9419",
    "lat": 36.1055,
    "lng": -106.9419,
    "region": "Greater Albuquerque Area"
  },
  {
    "name": "La Joya",
    "slug": "la-joya-nm",
    "county": "Socorro",
    "center": "34.345,-106.8466",
    "lat": 34.345,
    "lng": -106.8466,
    "region": "Central New Mexico - Socorro Area"
  },
  {
    "name": "La Luz",
    "slug": "la-luz-nm",
    "county": "Otero",
    "center": "32.9698,-105.9388",
    "lat": 32.9698,
    "lng": -105.9388,
    "region": "Southern New Mexico - Las Cruces Area"
  },
  {
    "name": "La Madera",
    "slug": "la-madera-nm",
    "county": "Sandoval",
    "center": "35.2345,-106.334",
    "lat": 35.2345,
    "lng": -106.334,
    "region": "Greater Albuquerque Area"
  },
  {
    "name": "La Madera",
    "slug": "la-madera-nm",
    "county": "Rio Arriba",
    "center": "36.3808,-106.042",
    "lat": 36.3808,
    "lng": -106.042,
    "region": "North Central New Mexico - Taos Area"
  },
  {
    "name": "La Mesa",
    "slug": "la-mesa-nm",
    "county": "Doña Ana",
    "center": "32.1244,-106.709",
    "lat": 32.1244,
    "lng": -106.709,
    "region": "Southern New Mexico - Las Cruces Area"
  },
  {
    "name": "La Mesilla",
    "slug": "la-mesilla-nm",
    "county": "Rio Arriba",
    "center": "35.9461,-106.0719",
    "lat": 35.9461,
    "lng": -106.0719,
    "region": "Santa Fe/Las Vegas Region"
  },
  {
    "name": "La Plata",
    "slug": "la-plata-nm",
    "county": "San Juan",
    "center": "36.8952,-108.2003",
    "lat": 36.8952,
    "lng": -108.2003,
    "region": "Northwest New Mexico - Farmington Area"
  },
  {
    "name": "La Puebla",
    "slug": "la-puebla-nm",
    "county": "Santa Fe",
    "center": "35.9882,-106.0005",
    "lat": 35.9882,
    "lng": -106.0005,
    "region": "Santa Fe/Las Vegas Region"
  },
  {
    "name": "La Tierra",
    "slug": "la-tierra-nm",
    "county": "Santa Fe",
    "center": "35.7473,-106.0308",
    "lat": 35.7473,
    "lng": -106.0308,
    "region": "Santa Fe/Las Vegas Region"
  },
  {
    "name": "La Union",
    "slug": "la-union-nm",
    "county": "Doña Ana",
    "center": "31.9508,-106.6622",
    "lat": 31.9508,
    "lng": -106.6622,
    "region": "Southern New Mexico - Las Cruces Area"
  },
  {
    "name": "La Villita",
    "slug": "la-villita-nm",
    "county": "Rio Arriba",
    "center": "36.1001,-106.0515",
    "lat": 36.1001,
    "lng": -106.0515,
    "region": "Santa Fe/Las Vegas Region"
  },
  {
    "name": "Laguna",
    "slug": "laguna-nm",
    "county": "Cibola",
    "center": "35.0473,-107.4031",
    "lat": 35.0473,
    "lng": -107.4031,
    "region": "Western New Mexico - Gallup Area"
  },
  {
    "name": "Lake Arthur",
    "slug": "lake-arthur-nm",
    "county": "Chaves",
    "center": "32.9994,-104.3637",
    "lat": 32.9994,
    "lng": -104.3637,
    "region": "Southeast New Mexico - Roswell / Carlsbad Area"
  },
  {
    "name": "Lake Roberts",
    "slug": "lake-roberts-nm",
    "county": "Grant",
    "center": "33.0313,-108.1689",
    "lat": 33.0313,
    "lng": -108.1689,
    "region": "Southwest New Mexico - Silver City Area"
  },
  {
    "name": "Lake Roberts Heights",
    "slug": "lake roberts-heights-nm",
    "county": "Grant",
    "center": "33.0271,-108.1381",
    "lat": 33.0271,
    "lng": -108.1381,
    "region": "Southwest New Mexico - Silver City Area"
  },
  {
    "name": "Lake Sumner",
    "slug": "lake-sumner-nm",
    "county": "De Baca",
    "center": "34.6186,-104.3801",
    "lat": 34.6186,
    "lng": -104.3801,
    "region": "New Mexico Border Region - Clovis / Portales Area"
  },
  {
    "name": "Lake Valley",
    "slug": "lake-valley-nm",
    "county": "San Juan",
    "center": "36.0901,-108.1642",
    "lat": 36.0901,
    "lng": -108.1642,
    "region": "Northwest New Mexico - Farmington Area"
  },
  {
    "name": "Lamy",
    "slug": "lamy-nm",
    "county": "Santa Fe",
    "center": "35.4854,-105.8863",
    "lat": 35.4854,
    "lng": -105.8863,
    "region": "Santa Fe/Las Vegas Region"
  },
  {
    "name": "Las Campanas",
    "slug": "las-campanas-nm",
    "county": "Santa Fe",
    "center": "35.7159,-106.0582",
    "lat": 35.7159,
    "lng": -106.0582,
    "region": "Santa Fe/Las Vegas Region"
  },
  {
    "name": "Las Cruces",
    "slug": "las-cruces-nm",
    "county": "Doña Ana",
    "center": "32.3265,-106.7893",
    "lat": 32.3265,
    "lng": -106.7893,
    "region": "Southern New Mexico - Las Cruces Area"
  },
  {
    "name": "Las Maravillas",
    "slug": "las-maravillas-nm",
    "county": "Valencia",
    "center": "34.734,-106.669",
    "lat": 34.734,
    "lng": -106.669,
    "region": "Greater Albuquerque Area"
  },
  {
    "name": "Las Nutrias",
    "slug": "las-nutrias-nm",
    "county": "Socorro",
    "center": "34.4699,-106.7708",
    "lat": 34.4699,
    "lng": -106.7708,
    "region": "Central New Mexico - Socorro Area"
  },
  {
    "name": "Las Palomas",
    "slug": "las-palomas-nm",
    "county": "Sierra",
    "center": "33.0589,-107.2983",
    "lat": 33.0589,
    "lng": -107.2983,
    "region": "Southern New Mexico - Las Cruces Area"
  },
  {
    "name": "Las Vegas",
    "slug": "las-vegas-nm",
    "county": "San Miguel",
    "center": "35.6011,-105.2206",
    "lat": 35.6011,
    "lng": -105.2206,
    "region": "Santa Fe/Las Vegas Region"
  },
  {
    "name": "Lee Acres",
    "slug": "lee-acres-nm",
    "county": "San Juan",
    "center": "36.7031,-108.0648",
    "lat": 36.7031,
    "lng": -108.0648,
    "region": "Northwest New Mexico - Farmington Area"
  },
  {
    "name": "Lemitar",
    "slug": "lemitar-nm",
    "county": "Socorro",
    "center": "34.1551,-106.9122",
    "lat": 34.1551,
    "lng": -106.9122,
    "region": "Central New Mexico - Socorro Area"
  },
  {
    "name": "Lindrith",
    "slug": "lindrith-nm",
    "county": "Rio Arriba",
    "center": "36.3173,-107.0459",
    "lat": 36.3173,
    "lng": -107.0459,
    "region": "Northern New Mexico - Chama/Dulce Area"
  },
  {
    "name": "Little Walnut Village",
    "slug": "little walnut-village-nm",
    "county": "Grant",
    "center": "32.8257,-108.2811",
    "lat": 32.8257,
    "lng": -108.2811,
    "region": "Southwest New Mexico - Silver City Area"
  },
  {
    "name": "Livingston Wheeler",
    "slug": "livingston-wheeler-nm",
    "county": "Eddy",
    "center": "32.3944,-104.1981",
    "lat": 32.3944,
    "lng": -104.1981,
    "region": "Southeast New Mexico - Roswell / Carlsbad Area"
  },
  {
    "name": "Llano del Medio",
    "slug": "llano del-medio-nm",
    "county": "Guadalupe",
    "center": "35.1881,-105.1163",
    "lat": 35.1881,
    "lng": -105.1163,
    "region": ""
  },
  {
    "name": "Lobo Canyon",
    "slug": "lobo-canyon-nm",
    "county": "Cibola",
    "center": "35.2238,-107.7209",
    "lat": 35.2238,
    "lng": -107.7209,
    "region": "Western New Mexico - Gallup Area"
  },
  {
    "name": "Loco Hills",
    "slug": "loco-hills-nm",
    "county": "Eddy",
    "center": "32.8197,-103.9783",
    "lat": 32.8197,
    "lng": -103.9783,
    "region": "Southeast New Mexico - Roswell / Carlsbad Area"
  },
  {
    "name": "Logan",
    "slug": "logan-nm",
    "county": "Quay",
    "center": "35.3576,-103.4426",
    "lat": 35.3576,
    "lng": -103.4426,
    "region": "New Mexico Border Region - Clovis / Portales Area"
  },
  {
    "name": "Lordsburg",
    "slug": "lordsburg-nm",
    "county": "Hidalgo",
    "center": "32.3438,-108.7021",
    "lat": 32.3438,
    "lng": -108.7021,
    "region": "Southwest New Mexico - Silver City Area"
  },
  {
    "name": "Los Alamos",
    "slug": "los-alamos-nm",
    "county": "Los Alamos",
    "center": "35.8927,-106.2862",
    "lat": 35.8927,
    "lng": -106.2862,
    "region": "Greater Albuquerque Area"
  },
  {
    "name": "Los Cerrillos",
    "slug": "los-cerrillos-nm",
    "county": "Santa Fe",
    "center": "35.4272,-106.1212",
    "lat": 35.4272,
    "lng": -106.1212,
    "region": "Santa Fe/Las Vegas Region"
  },
  {
    "name": "Los Chaves",
    "slug": "los-chaves-nm",
    "county": "Valencia",
    "center": "34.7334,-106.7611",
    "lat": 34.7334,
    "lng": -106.7611,
    "region": "Greater Albuquerque Area"
  },
  {
    "name": "Los Luceros",
    "slug": "los-luceros-nm",
    "county": "Rio Arriba",
    "center": "36.1151,-106.0371",
    "lat": 36.1151,
    "lng": -106.0371,
    "region": "Santa Fe/Las Vegas Region"
  },
  {
    "name": "Los Lunas",
    "slug": "los-lunas-nm",
    "county": "Valencia",
    "center": "34.8115,-106.7803",
    "lat": 34.8115,
    "lng": -106.7803,
    "region": "Greater Albuquerque Area"
  },
  {
    "name": "Los Ojos",
    "slug": "los-ojos-nm",
    "county": "Rio Arriba",
    "center": "36.7361,-106.5669",
    "lat": 36.7361,
    "lng": -106.5669,
    "region": "Northern New Mexico - Chama/Dulce Area"
  },
  {
    "name": "Los Ranchos de Albuquerque",
    "slug": "los ranchos de-albuquerque-nm",
    "county": "Bernalillo",
    "center": "35.1625,-106.6482",
    "lat": 35.1625,
    "lng": -106.6482,
    "region": "Greater Albuquerque Area"
  },
  {
    "name": "Loving",
    "slug": "loving-nm",
    "county": "Eddy",
    "center": "32.2862,-104.0976",
    "lat": 32.2862,
    "lng": -104.0976,
    "region": "Southeast New Mexico - Roswell / Carlsbad Area"
  },
  {
    "name": "Lovington",
    "slug": "lovington-nm",
    "county": "Lea",
    "center": "32.9128,-103.3276",
    "lat": 32.9128,
    "lng": -103.3276,
    "region": "Southeast New Mexico - Roswell / Carlsbad Area"
  },
  {
    "name": "Lower Frisco",
    "slug": "lower-frisco-nm",
    "county": "Catron",
    "center": "33.6515,-108.7895",
    "lat": 33.6515,
    "lng": -108.7895,
    "region": ""
  },
  {
    "name": "Luis Lopez",
    "slug": "luis-lopez-nm",
    "county": "Socorro",
    "center": "33.9904,-106.8878",
    "lat": 33.9904,
    "lng": -106.8878,
    "region": "Central New Mexico - Socorro Area"
  },
  {
    "name": "Lumberton",
    "slug": "lumberton-nm",
    "county": "Rio Arriba",
    "center": "36.9328,-106.9352",
    "lat": 36.9328,
    "lng": -106.9352,
    "region": "Northern New Mexico - Chama/Dulce Area"
  },
  {
    "name": "Luna",
    "slug": "luna-nm",
    "county": "Catron",
    "center": "33.8181,-108.9435",
    "lat": 33.8181,
    "lng": -108.9435,
    "region": ""
  },
  {
    "name": "Lybrook",
    "slug": "lybrook-nm",
    "county": "Rio Arriba",
    "center": "36.229,-107.5549",
    "lat": 36.229,
    "lng": -107.5549,
    "region": "Northwest New Mexico - Farmington Area"
  },
  {
    "name": "Lyden",
    "slug": "lyden-nm",
    "county": "Rio Arriba",
    "center": "36.1537,-106.0147",
    "lat": 36.1537,
    "lng": -106.0147,
    "region": "Santa Fe/Las Vegas Region"
  },
  {
    "name": "Madrid",
    "slug": "madrid-nm",
    "county": "Santa Fe",
    "center": "35.4033,-106.1537",
    "lat": 35.4033,
    "lng": -106.1537,
    "region": "Santa Fe/Las Vegas Region"
  },
  {
    "name": "Madrone",
    "slug": "madrone-nm",
    "county": "Valencia",
    "center": "34.5792,-106.7285",
    "lat": 34.5792,
    "lng": -106.7285,
    "region": "Central New Mexico - Socorro Area"
  },
  {
    "name": "Magdalena",
    "slug": "magdalena-nm",
    "county": "Socorro",
    "center": "34.1095,-107.2319",
    "lat": 34.1095,
    "lng": -107.2319,
    "region": "Central New Mexico - Socorro Area"
  },
  {
    "name": "Malaga",
    "slug": "malaga-nm",
    "county": "Eddy",
    "center": "32.2227,-104.0692",
    "lat": 32.2227,
    "lng": -104.0692,
    "region": "Southeast New Mexico - Roswell / Carlsbad Area"
  },
  {
    "name": "Manuelito",
    "slug": "manuelito-nm",
    "county": "McKinley",
    "center": "35.4387,-108.9946",
    "lat": 35.4387,
    "lng": -108.9946,
    "region": "Western New Mexico - Gallup Area"
  },
  {
    "name": "Manzano",
    "slug": "manzano-nm",
    "county": "Torrance",
    "center": "34.6437,-106.3671",
    "lat": 34.6437,
    "lng": -106.3671,
    "region": "Greater Albuquerque Area"
  },
  {
    "name": "Manzano Springs",
    "slug": "manzano-springs-nm",
    "county": "Torrance",
    "center": "34.9614,-106.2328",
    "lat": 34.9614,
    "lng": -106.2328,
    "region": ""
  },
  {
    "name": "Maxwell",
    "slug": "maxwell-nm",
    "county": "Colfax",
    "center": "36.5411,-104.5431",
    "lat": 36.5411,
    "lng": -104.5431,
    "region": "Northeast New Mexico - Raton / Clayton Area"
  },
  {
    "name": "Mayhill",
    "slug": "mayhill-nm",
    "county": "Otero",
    "center": "32.8961,-105.496",
    "lat": 32.8961,
    "lng": -105.496,
    "region": "Southern New Mexico - Las Cruces Area"
  },
  {
    "name": "McCartys Village",
    "slug": "mccartys-village-nm",
    "county": "Cibola",
    "center": "35.0614,-107.6634",
    "lat": 35.0614,
    "lng": -107.6634,
    "region": "Western New Mexico - Gallup Area"
  },
  {
    "name": "McGaffey",
    "slug": "mcgaffey-nm",
    "county": "McKinley",
    "center": "35.372,-108.5207",
    "lat": 35.372,
    "lng": -108.5207,
    "region": "Western New Mexico - Gallup Area"
  },
  {
    "name": "McIntosh",
    "slug": "mcintosh-nm",
    "county": "Torrance",
    "center": "34.8819,-106.0559",
    "lat": 34.8819,
    "lng": -106.0559,
    "region": ""
  },
  {
    "name": "Meadow Lake",
    "slug": "meadow-lake-nm",
    "county": "Valencia",
    "center": "34.8024,-106.5701",
    "lat": 34.8024,
    "lng": -106.5701,
    "region": "Greater Albuquerque Area"
  },
  {
    "name": "Medanales",
    "slug": "medanales-nm",
    "county": "Rio Arriba",
    "center": "36.1765,-106.1777",
    "lat": 36.1765,
    "lng": -106.1777,
    "region": "North Central New Mexico - Taos Area"
  },
  {
    "name": "Melrose",
    "slug": "melrose-nm",
    "county": "Curry",
    "center": "34.4289,-103.6296",
    "lat": 34.4289,
    "lng": -103.6296,
    "region": "New Mexico Border Region - Clovis / Portales Area"
  },
  {
    "name": "Mescalero",
    "slug": "mescalero-nm",
    "county": "Otero",
    "center": "33.1448,-105.7897",
    "lat": 33.1448,
    "lng": -105.7897,
    "region": "Southern New Mexico - Las Cruces Area"
  },
  {
    "name": "Mesilla",
    "slug": "mesilla-nm",
    "county": "Doña Ana",
    "center": "32.2693,-106.8091",
    "lat": 32.2693,
    "lng": -106.8091,
    "region": "Southern New Mexico - Las Cruces Area"
  },
  {
    "name": "Mesita",
    "slug": "mesita-nm",
    "county": "Cibola",
    "center": "35.0026,-107.3122",
    "lat": 35.0026,
    "lng": -107.3122,
    "region": "Greater Albuquerque Area"
  },
  {
    "name": "Mesquite",
    "slug": "mesquite-nm",
    "county": "Doña Ana",
    "center": "32.167,-106.6885",
    "lat": 32.167,
    "lng": -106.6885,
    "region": "Southern New Mexico - Las Cruces Area"
  },
  {
    "name": "Middle Frisco",
    "slug": "middle-frisco-nm",
    "county": "Catron",
    "center": "33.6949,-108.7639",
    "lat": 33.6949,
    "lng": -108.7639,
    "region": ""
  },
  {
    "name": "Midway",
    "slug": "midway-nm",
    "county": "Chaves",
    "center": "33.2958,-104.4518",
    "lat": 33.2958,
    "lng": -104.4518,
    "region": "Southeast New Mexico - Roswell / Carlsbad Area"
  },
  {
    "name": "Milan",
    "slug": "milan-nm",
    "county": "Cibola",
    "center": "35.1949,-107.8946",
    "lat": 35.1949,
    "lng": -107.8946,
    "region": "Western New Mexico - Gallup Area"
  },
  {
    "name": "Mimbres",
    "slug": "mimbres-nm",
    "county": "Grant",
    "center": "32.8398,-107.9606",
    "lat": 32.8398,
    "lng": -107.9606,
    "region": "Southwest New Mexico - Silver City Area"
  },
  {
    "name": "Mogollon",
    "slug": "mogollon-nm",
    "county": "Catron",
    "center": "33.4034,-108.7992",
    "lat": 33.4034,
    "lng": -108.7992,
    "region": "Southwest New Mexico - Silver City Area"
  },
  {
    "name": "Monterey Park",
    "slug": "monterey-park-nm",
    "county": "Valencia",
    "center": "34.7511,-106.653",
    "lat": 34.7511,
    "lng": -106.653,
    "region": "Greater Albuquerque Area"
  },
  {
    "name": "Monument",
    "slug": "monument-nm",
    "county": "Lea",
    "center": "32.6243,-103.2776",
    "lat": 32.6243,
    "lng": -103.2776,
    "region": "Southeast New Mexico - Roswell / Carlsbad Area"
  },
  {
    "name": "Moquino",
    "slug": "moquino-nm",
    "county": "Cibola",
    "center": "35.17,-107.364",
    "lat": 35.17,
    "lng": -107.364,
    "region": "Greater Albuquerque Area"
  },
  {
    "name": "Mora",
    "slug": "mora-nm",
    "county": "Mora",
    "center": "35.9634,-105.3312",
    "lat": 35.9634,
    "lng": -105.3312,
    "region": "Santa Fe/Las Vegas Region"
  },
  {
    "name": "Moriarty",
    "slug": "moriarty-nm",
    "county": "Torrance",
    "center": "35.0034,-106.0444",
    "lat": 35.0034,
    "lng": -106.0444,
    "region": ""
  },
  {
    "name": "Morningside",
    "slug": "morningside-nm",
    "county": "Eddy",
    "center": "32.861,-104.3971",
    "lat": 32.861,
    "lng": -104.3971,
    "region": "Southeast New Mexico - Roswell / Carlsbad Area"
  },
  {
    "name": "Mosquero",
    "slug": "mosquero-nm",
    "county": "Harding",
    "center": "35.7743,-103.9544",
    "lat": 35.7743,
    "lng": -103.9544,
    "region": "Northeast New Mexico - Raton / Clayton Area"
  },
  {
    "name": "Mount Taylor",
    "slug": "mount-taylor-nm",
    "county": "Cibola",
    "center": "35.1241,-107.8075",
    "lat": 35.1241,
    "lng": -107.8075,
    "region": "Western New Mexico - Gallup Area"
  },
  {
    "name": "Mountain View",
    "slug": "mountain-view-nm",
    "county": "Cibola",
    "center": "35.0046,-108.3979",
    "lat": 35.0046,
    "lng": -108.3979,
    "region": "Western New Mexico - Gallup Area"
  },
  {
    "name": "Mountain View",
    "slug": "mountain-view-nm",
    "county": "Luna",
    "center": "32.2288,-107.7462",
    "lat": 32.2288,
    "lng": -107.7462,
    "region": "Southwest New Mexico - Silver City Area"
  },
  {
    "name": "Mountainair",
    "slug": "mountainair-nm",
    "county": "Torrance",
    "center": "34.5212,-106.2392",
    "lat": 34.5212,
    "lng": -106.2392,
    "region": ""
  },
  {
    "name": "Nadine",
    "slug": "nadine-nm",
    "county": "Lea",
    "center": "32.6231,-103.1078",
    "lat": 32.6231,
    "lng": -103.1078,
    "region": "Southeast New Mexico - Roswell / Carlsbad Area"
  },
  {
    "name": "Nageezi",
    "slug": "nageezi-nm",
    "county": "San Juan",
    "center": "36.2488,-107.7471",
    "lat": 36.2488,
    "lng": -107.7471,
    "region": "Northwest New Mexico - Farmington Area"
  },
  {
    "name": "Nakaibito",
    "slug": "nakaibito-nm",
    "county": "McKinley",
    "center": "35.7826,-108.8039",
    "lat": 35.7826,
    "lng": -108.8039,
    "region": "Western New Mexico - Gallup Area"
  },
  {
    "name": "Nambe",
    "slug": "nambe-nm",
    "county": "Santa Fe",
    "center": "35.8984,-105.9667",
    "lat": 35.8984,
    "lng": -105.9667,
    "region": "Santa Fe/Las Vegas Region"
  },
  {
    "name": "Napi Headquarters",
    "slug": "napi-headquarters-nm",
    "county": "San Juan",
    "center": "36.6505,-108.2145",
    "lat": 36.6505,
    "lng": -108.2145,
    "region": "Northwest New Mexico - Farmington Area"
  },
  {
    "name": "Nara Visa",
    "slug": "nara-visa-nm",
    "county": "Quay",
    "center": "35.6068,-103.1043",
    "lat": 35.6068,
    "lng": -103.1043,
    "region": "Northeast New Mexico - Raton / Clayton Area"
  },
  {
    "name": "Naschitti",
    "slug": "naschitti-nm",
    "county": "San Juan",
    "center": "36.0626,-108.68",
    "lat": 36.0626,
    "lng": -108.68,
    "region": "Northwest New Mexico - Farmington Area"
  },
  {
    "name": "Navajo",
    "slug": "navajo-nm",
    "county": "McKinley",
    "center": "35.9024,-109.0321",
    "lat": 35.9024,
    "lng": -109.0321,
    "region": "Western New Mexico - Gallup Area"
  },
  {
    "name": "Navajo Dam",
    "slug": "navajo-dam-nm",
    "county": "San Juan",
    "center": "36.8339,-107.646",
    "lat": 36.8339,
    "lng": -107.646,
    "region": "Northwest New Mexico - Farmington Area"
  },
  {
    "name": "Nenahnezad",
    "slug": "nenahnezad-nm",
    "county": "San Juan",
    "center": "36.7354,-108.4252",
    "lat": 36.7354,
    "lng": -108.4252,
    "region": "Northwest New Mexico - Farmington Area"
  },
  {
    "name": "Newcomb",
    "slug": "newcomb-nm",
    "county": "San Juan",
    "center": "36.2852,-108.7116",
    "lat": 36.2852,
    "lng": -108.7116,
    "region": "Northwest New Mexico - Farmington Area"
  },
  {
    "name": "Newkirk",
    "slug": "newkirk-nm",
    "county": "Guadalupe",
    "center": "35.0635,-104.2715",
    "lat": 35.0635,
    "lng": -104.2715,
    "region": "New Mexico Border Region - Clovis / Portales Area"
  },
  {
    "name": "Nogal",
    "slug": "nogal-nm",
    "county": "Lincoln",
    "center": "33.5382,-105.7119",
    "lat": 33.5382,
    "lng": -105.7119,
    "region": "Southern New Mexico - Las Cruces Area"
  },
  {
    "name": "North Acomita Village",
    "slug": "north acomita-village-nm",
    "county": "Cibola",
    "center": "35.0673,-107.5649",
    "lat": 35.0673,
    "lng": -107.5649,
    "region": "Western New Mexico - Gallup Area"
  },
  {
    "name": "North Hobbs",
    "slug": "north-hobbs-nm",
    "county": "Lea",
    "center": "32.7731,-103.125",
    "lat": 32.7731,
    "lng": -103.125,
    "region": "Southeast New Mexico - Roswell / Carlsbad Area"
  },
  {
    "name": "North Hurley",
    "slug": "north-hurley-nm",
    "county": "Grant",
    "center": "32.7198,-108.1285",
    "lat": 32.7198,
    "lng": -108.1285,
    "region": "Southwest New Mexico - Silver City Area"
  },
  {
    "name": "North Light Plant",
    "slug": "north light-plant-nm",
    "county": "San Juan",
    "center": "36.867,-108.033",
    "lat": 36.867,
    "lng": -108.033,
    "region": "Northwest New Mexico - Farmington Area"
  },
  {
    "name": "North San Ysidro",
    "slug": "north san-ysidro-nm",
    "county": "San Miguel",
    "center": "35.4747,-105.5661",
    "lat": 35.4747,
    "lng": -105.5661,
    "region": "Santa Fe/Las Vegas Region"
  },
  {
    "name": "North Valley",
    "slug": "north-valley-nm",
    "county": "Bernalillo",
    "center": "35.1736,-106.6231",
    "lat": 35.1736,
    "lng": -106.6231,
    "region": "Greater Albuquerque Area"
  },
  {
    "name": "Oasis",
    "slug": "oasis-nm",
    "county": "Sierra",
    "center": "32.9277,-107.3164",
    "lat": 32.9277,
    "lng": -107.3164,
    "region": "Southern New Mexico - Las Cruces Area"
  },
  {
    "name": "Ohkay Owingeh",
    "slug": "ohkay-owingeh-nm",
    "county": "Rio Arriba",
    "center": "36.044,-106.0565",
    "lat": 36.044,
    "lng": -106.0565,
    "region": "Santa Fe/Las Vegas Region"
  },
  {
    "name": "Ojo Amarillo",
    "slug": "ojo-amarillo-nm",
    "county": "San Juan",
    "center": "36.6942,-108.3704",
    "lat": 36.6942,
    "lng": -108.3704,
    "region": "Northwest New Mexico - Farmington Area"
  },
  {
    "name": "Ojo Caliente",
    "slug": "ojo-caliente-nm",
    "county": "Taos",
    "center": "36.3146,-106.0374",
    "lat": 36.3146,
    "lng": -106.0374,
    "region": "North Central New Mexico - Taos Area"
  },
  {
    "name": "Ojo Encino",
    "slug": "ojo-encino-nm",
    "county": "McKinley",
    "center": "35.9525,-107.3445",
    "lat": 35.9525,
    "lng": -107.3445,
    "region": "Greater Albuquerque Area"
  },
  {
    "name": "Ojo Sarco",
    "slug": "ojo-sarco-nm",
    "county": "Rio Arriba",
    "center": "36.125,-105.7846",
    "lat": 36.125,
    "lng": -105.7846,
    "region": "Santa Fe/Las Vegas Region"
  },
  {
    "name": "Old Town",
    "slug": "old-town-nm",
    "county": "Luna",
    "center": "32.5125,-107.9232",
    "lat": 32.5125,
    "lng": -107.9232,
    "region": "Southwest New Mexico - Silver City Area"
  },
  {
    "name": "Organ",
    "slug": "organ-nm",
    "county": "Doña Ana",
    "center": "32.4251,-106.6025",
    "lat": 32.4251,
    "lng": -106.6025,
    "region": "Southern New Mexico - Las Cruces Area"
  },
  {
    "name": "Orogrande",
    "slug": "orogrande-nm",
    "county": "Otero",
    "center": "32.3874,-106.1003",
    "lat": 32.3874,
    "lng": -106.1003,
    "region": "Southern New Mexico - Las Cruces Area"
  },
  {
    "name": "Paa-Ko",
    "slug": "paa-ko-nm",
    "county": "Bernalillo",
    "center": "35.1998,-106.3337",
    "lat": 35.1998,
    "lng": -106.3337,
    "region": "Greater Albuquerque Area"
  },
  {
    "name": "Paguate",
    "slug": "paguate-nm",
    "county": "Cibola",
    "center": "35.1473,-107.3814",
    "lat": 35.1473,
    "lng": -107.3814,
    "region": "Greater Albuquerque Area"
  },
  {
    "name": "Pajarito Mesa",
    "slug": "pajarito-mesa-nm",
    "county": "Bernalillo",
    "center": "34.9855,-106.7817",
    "lat": 34.9855,
    "lng": -106.7817,
    "region": "Greater Albuquerque Area"
  },
  {
    "name": "Paradise Hills",
    "slug": "paradise-hills-nm",
    "county": "Bernalillo",
    "center": "35.1981,-106.7023",
    "lat": 35.1981,
    "lng": -106.7023,
    "region": "Greater Albuquerque Area"
  },
  {
    "name": "Paraje",
    "slug": "paraje-nm",
    "county": "Cibola",
    "center": "35.0444,-107.4681",
    "lat": 35.0444,
    "lng": -107.4681,
    "region": "Western New Mexico - Gallup Area"
  },
  {
    "name": "Pastura",
    "slug": "pastura-nm",
    "county": "Guadalupe",
    "center": "34.7851,-104.9421",
    "lat": 34.7851,
    "lng": -104.9421,
    "region": "New Mexico Border Region - Clovis / Portales Area"
  },
  {
    "name": "Peak Place",
    "slug": "peak-place-nm",
    "county": "Santa Fe",
    "center": "35.7911,-105.9432",
    "lat": 35.7911,
    "lng": -105.9432,
    "region": "Santa Fe/Las Vegas Region"
  },
  {
    "name": "Pecan Park",
    "slug": "pecan-park-nm",
    "county": "Luna",
    "center": "32.2704,-107.674",
    "lat": 32.2704,
    "lng": -107.674,
    "region": "Southwest New Mexico - Silver City Area"
  },
  {
    "name": "Pecos",
    "slug": "pecos-nm",
    "county": "San Miguel",
    "center": "35.5757,-105.6784",
    "lat": 35.5757,
    "lng": -105.6784,
    "region": "Santa Fe/Las Vegas Region"
  },
  {
    "name": "Peña Blanca",
    "slug": "peña-blanca-nm",
    "county": "Sandoval",
    "center": "35.5709,-106.3319",
    "lat": 35.5709,
    "lng": -106.3319,
    "region": "Greater Albuquerque Area"
  },
  {
    "name": "Peñasco",
    "slug": "peñasco-nm",
    "county": "Taos",
    "center": "36.1703,-105.6908",
    "lat": 36.1703,
    "lng": -105.6908,
    "region": "North Central New Mexico - Taos Area"
  },
  {
    "name": "Peralta",
    "slug": "peralta-nm",
    "county": "Valencia",
    "center": "34.8283,-106.6859",
    "lat": 34.8283,
    "lng": -106.6859,
    "region": "Greater Albuquerque Area"
  },
  {
    "name": "Picacho Hills",
    "slug": "picacho-hills-nm",
    "county": "Doña Ana",
    "center": "32.3158,-106.8785",
    "lat": 32.3158,
    "lng": -106.8785,
    "region": "Southern New Mexico - Las Cruces Area"
  },
  {
    "name": "Picuris Pueblo",
    "slug": "picuris-pueblo-nm",
    "county": "Taos",
    "center": "36.1995,-105.7133",
    "lat": 36.1995,
    "lng": -105.7133,
    "region": "North Central New Mexico - Taos Area"
  },
  {
    "name": "Pie Town",
    "slug": "pie-town-nm",
    "county": "Catron",
    "center": "34.34,-108.1708",
    "lat": 34.34,
    "lng": -108.1708,
    "region": ""
  },
  {
    "name": "Pinedale",
    "slug": "pinedale-nm",
    "county": "McKinley",
    "center": "35.6078,-108.4225",
    "lat": 35.6078,
    "lng": -108.4225,
    "region": "Western New Mexico - Gallup Area"
  },
  {
    "name": "Pinehaven",
    "slug": "pinehaven-nm",
    "county": "McKinley",
    "center": "35.3357,-108.671",
    "lat": 35.3357,
    "lng": -108.671,
    "region": "Western New Mexico - Gallup Area"
  },
  {
    "name": "Pinehill",
    "slug": "pinehill-nm",
    "county": "Cibola",
    "center": "34.8922,-108.4224",
    "lat": 34.8922,
    "lng": -108.4224,
    "region": "Western New Mexico - Gallup Area"
  },
  {
    "name": "Pinon",
    "slug": "pinon-nm",
    "county": "Otero",
    "center": "32.6182,-105.3867",
    "lat": 32.6182,
    "lng": -105.3867,
    "region": "Southern New Mexico - Las Cruces Area"
  },
  {
    "name": "Pinos Altos",
    "slug": "pinos-altos-nm",
    "county": "Grant",
    "center": "32.8665,-108.2221",
    "lat": 32.8665,
    "lng": -108.2221,
    "region": "Southwest New Mexico - Silver City Area"
  },
  {
    "name": "Placitas",
    "slug": "placitas-nm",
    "county": "Sandoval",
    "center": "35.3226,-106.4437",
    "lat": 35.3226,
    "lng": -106.4437,
    "region": "Greater Albuquerque Area"
  },
  {
    "name": "Playas",
    "slug": "playas-nm",
    "county": "Hidalgo",
    "center": "31.9125,-108.5363",
    "lat": 31.9125,
    "lng": -108.5363,
    "region": "Southwest New Mexico - Silver City Area"
  },
  {
    "name": "Pleasanton",
    "slug": "pleasanton-nm",
    "county": "Catron",
    "center": "33.2759,-108.8792",
    "lat": 33.2759,
    "lng": -108.8792,
    "region": "Southwest New Mexico - Silver City Area"
  },
  {
    "name": "Pojoaque",
    "slug": "pojoaque-nm",
    "county": "Santa Fe",
    "center": "35.8962,-106.0105",
    "lat": 35.8962,
    "lng": -106.0105,
    "region": "Santa Fe/Las Vegas Region"
  },
  {
    "name": "Polvadera",
    "slug": "polvadera-nm",
    "county": "Socorro",
    "center": "34.202,-106.9172",
    "lat": 34.202,
    "lng": -106.9172,
    "region": "Central New Mexico - Socorro Area"
  },
  {
    "name": "Ponderosa",
    "slug": "ponderosa-nm",
    "county": "Sandoval",
    "center": "35.6555,-106.6544",
    "lat": 35.6555,
    "lng": -106.6544,
    "region": "Greater Albuquerque Area"
  },
  {
    "name": "Ponderosa Pine",
    "slug": "ponderosa-pine-nm",
    "county": "Bernalillo",
    "center": "34.972,-106.3369",
    "lat": 34.972,
    "lng": -106.3369,
    "region": "Greater Albuquerque Area"
  },
  {
    "name": "Portales",
    "slug": "portales-nm",
    "county": "Roosevelt",
    "center": "34.1754,-103.3565",
    "lat": 34.1754,
    "lng": -103.3565,
    "region": "New Mexico Border Region - Clovis / Portales Area"
  },
  {
    "name": "Prewitt",
    "slug": "prewitt-nm",
    "county": "McKinley",
    "center": "35.3682,-108.0748",
    "lat": 35.3682,
    "lng": -108.0748,
    "region": "Western New Mexico - Gallup Area"
  },
  {
    "name": "Pueblito",
    "slug": "pueblito-nm",
    "county": "Rio Arriba",
    "center": "36.0727,-106.0811",
    "lat": 36.0727,
    "lng": -106.0811,
    "region": "Santa Fe/Las Vegas Region"
  },
  {
    "name": "Pueblitos",
    "slug": "pueblitos-nm",
    "county": "Valencia",
    "center": "34.6109,-106.7818",
    "lat": 34.6109,
    "lng": -106.7818,
    "region": "Central New Mexico - Socorro Area"
  },
  {
    "name": "Pueblo",
    "slug": "pueblo-nm",
    "county": "San Miguel",
    "center": "35.3273,-105.4354",
    "lat": 35.3273,
    "lng": -105.4354,
    "region": ""
  },
  {
    "name": "Pueblo of Sandia Village",
    "slug": "pueblo of sandia-village-nm",
    "county": "Sandoval",
    "center": "35.2536,-106.5706",
    "lat": 35.2536,
    "lng": -106.5706,
    "region": "Greater Albuquerque Area"
  },
  {
    "name": "Pueblo Pintado",
    "slug": "pueblo-pintado-nm",
    "county": "McKinley",
    "center": "35.9614,-107.6224",
    "lat": 35.9614,
    "lng": -107.6224,
    "region": "Western New Mexico - Gallup Area"
  },
  {
    "name": "Puerto de Luna",
    "slug": "puerto de-luna-nm",
    "county": "Guadalupe",
    "center": "34.8297,-104.6222",
    "lat": 34.8297,
    "lng": -104.6222,
    "region": "New Mexico Border Region - Clovis / Portales Area"
  },
  {
    "name": "Pulpotio Bareas",
    "slug": "pulpotio-bareas-nm",
    "county": "Luna",
    "center": "32.2179,-107.7728",
    "lat": 32.2179,
    "lng": -107.7728,
    "region": "Southwest New Mexico - Silver City Area"
  },
  {
    "name": "Punta de Agua",
    "slug": "punta de-agua-nm",
    "county": "Torrance",
    "center": "34.6016,-106.2922",
    "lat": 34.6016,
    "lng": -106.2922,
    "region": "Central New Mexico - Socorro Area"
  },
  {
    "name": "Purty Rock",
    "slug": "purty-rock-nm",
    "county": "McKinley",
    "center": "35.4903,-108.8954",
    "lat": 35.4903,
    "lng": -108.8954,
    "region": "Western New Mexico - Gallup Area"
  },
  {
    "name": "Quemado",
    "slug": "quemado-nm",
    "county": "Catron",
    "center": "34.3414,-108.506",
    "lat": 34.3414,
    "lng": -108.506,
    "region": ""
  },
  {
    "name": "Questa",
    "slug": "questa-nm",
    "county": "Taos",
    "center": "36.7114,-105.5935",
    "lat": 36.7114,
    "lng": -105.5935,
    "region": "North Central New Mexico - Taos Area"
  },
  {
    "name": "Radium Springs",
    "slug": "radium-springs-nm",
    "county": "Doña Ana",
    "center": "32.4783,-106.9031",
    "lat": 32.4783,
    "lng": -106.9031,
    "region": "Southern New Mexico - Las Cruces Area"
  },
  {
    "name": "Ramah",
    "slug": "ramah-nm",
    "county": "McKinley",
    "center": "35.1263,-108.5063",
    "lat": 35.1263,
    "lng": -108.5063,
    "region": "Western New Mexico - Gallup Area"
  },
  {
    "name": "Rancho Grande",
    "slug": "rancho-grande-nm",
    "county": "Catron",
    "center": "33.6826,-108.8581",
    "lat": 33.6826,
    "lng": -108.8581,
    "region": ""
  },
  {
    "name": "Ranchos de Taos",
    "slug": "ranchos de-taos-nm",
    "county": "Taos",
    "center": "36.3619,-105.6016",
    "lat": 36.3619,
    "lng": -105.6016,
    "region": "North Central New Mexico - Taos Area"
  },
  {
    "name": "Raton",
    "slug": "raton-nm",
    "county": "Colfax",
    "center": "36.8849,-104.4396",
    "lat": 36.8849,
    "lng": -104.4396,
    "region": "Northeast New Mexico - Raton / Clayton Area"
  },
  {
    "name": "Red River",
    "slug": "red-river-nm",
    "county": "Taos",
    "center": "36.7041,-105.4064",
    "lat": 36.7041,
    "lng": -105.4064,
    "region": "North Central New Mexico - Taos Area"
  },
  {
    "name": "Red Rock Ranch",
    "slug": "red rock-ranch-nm",
    "county": "McKinley",
    "center": "35.4242,-108.0262",
    "lat": 35.4242,
    "lng": -108.0262,
    "region": "Western New Mexico - Gallup Area"
  },
  {
    "name": "Redrock",
    "slug": "redrock-nm",
    "county": "Grant",
    "center": "32.6885,-108.7406",
    "lat": 32.6885,
    "lng": -108.7406,
    "region": "Southwest New Mexico - Silver City Area"
  },
  {
    "name": "Regina",
    "slug": "regina-nm",
    "county": "Sandoval",
    "center": "36.1947,-106.9453",
    "lat": 36.1947,
    "lng": -106.9453,
    "region": "Northern New Mexico - Chama/Dulce Area"
  },
  {
    "name": "Reserve",
    "slug": "reserve-nm",
    "county": "Catron",
    "center": "33.709,-108.7614",
    "lat": 33.709,
    "lng": -108.7614,
    "region": ""
  },
  {
    "name": "Ribera",
    "slug": "ribera-nm",
    "county": "San Miguel",
    "center": "35.37,-105.4441",
    "lat": 35.37,
    "lng": -105.4441,
    "region": ""
  },
  {
    "name": "Rincon",
    "slug": "rincon-nm",
    "county": "Doña Ana",
    "center": "32.6726,-107.0759",
    "lat": 32.6726,
    "lng": -107.0759,
    "region": "Southern New Mexico - Las Cruces Area"
  },
  {
    "name": "Rio Chiquito",
    "slug": "rio-chiquito-nm",
    "county": "Santa Fe",
    "center": "35.9949,-105.9069",
    "lat": 35.9949,
    "lng": -105.9069,
    "region": "Santa Fe/Las Vegas Region"
  },
  {
    "name": "Rio Communities",
    "slug": "rio-communities-nm",
    "county": "Valencia",
    "center": "34.6459,-106.7164",
    "lat": 34.6459,
    "lng": -106.7164,
    "region": "Greater Albuquerque Area"
  },
  {
    "name": "Rio en Medio",
    "slug": "rio en-medio-nm",
    "county": "Santa Fe",
    "center": "35.8221,-105.901",
    "lat": 35.8221,
    "lng": -105.901,
    "region": "Santa Fe/Las Vegas Region"
  },
  {
    "name": "Rio Lucio",
    "slug": "rio-lucio-nm",
    "county": "Taos",
    "center": "36.1922,-105.72",
    "lat": 36.1922,
    "lng": -105.72,
    "region": "North Central New Mexico - Taos Area"
  },
  {
    "name": "Rio Rancho",
    "slug": "rio-rancho-nm",
    "county": "Sandoval",
    "center": "35.2873,-106.6982",
    "lat": 35.2873,
    "lng": -106.6982,
    "region": "Greater Albuquerque Area"
  },
  {
    "name": "Rio Rancho Estates",
    "slug": "rio rancho-estates-nm",
    "county": "Sandoval",
    "center": "35.3004,-106.7985",
    "lat": 35.3004,
    "lng": -106.7985,
    "region": "Greater Albuquerque Area"
  },
  {
    "name": "Rivers",
    "slug": "rivers-nm",
    "county": "Catron",
    "center": "33.6757,-108.7768",
    "lat": 33.6757,
    "lng": -108.7768,
    "region": ""
  },
  {
    "name": "Rock Springs",
    "slug": "rock-springs-nm",
    "county": "McKinley",
    "center": "35.6188,-108.8345",
    "lat": 35.6188,
    "lng": -108.8345,
    "region": "Western New Mexico - Gallup Area"
  },
  {
    "name": "Rodeo",
    "slug": "rodeo-nm",
    "county": "Hidalgo",
    "center": "31.8396,-109.0265",
    "lat": 31.8396,
    "lng": -109.0265,
    "region": "Southwest New Mexico - Silver City Area"
  },
  {
    "name": "Rodey",
    "slug": "rodey-nm",
    "county": "Doña Ana",
    "center": "32.6538,-107.1358",
    "lat": 32.6538,
    "lng": -107.1358,
    "region": "Southern New Mexico - Las Cruces Area"
  },
  {
    "name": "Rosedale",
    "slug": "rosedale-nm",
    "county": "Grant",
    "center": "32.7694,-108.2417",
    "lat": 32.7694,
    "lng": -108.2417,
    "region": "Southwest New Mexico - Silver City Area"
  },
  {
    "name": "Roswell",
    "slug": "roswell-nm",
    "county": "Chaves",
    "center": "33.373,-104.5294",
    "lat": 33.373,
    "lng": -104.5294,
    "region": "Southeast New Mexico - Roswell / Carlsbad Area"
  },
  {
    "name": "Rowe",
    "slug": "rowe-nm",
    "county": "San Miguel",
    "center": "35.4922,-105.6715",
    "lat": 35.4922,
    "lng": -105.6715,
    "region": "Santa Fe/Las Vegas Region"
  },
  {
    "name": "Roy",
    "slug": "roy-nm",
    "county": "Harding",
    "center": "35.9451,-104.1963",
    "lat": 35.9451,
    "lng": -104.1963,
    "region": "Northeast New Mexico - Raton / Clayton Area"
  },
  {
    "name": "Ruidoso",
    "slug": "ruidoso-nm",
    "county": "Lincoln",
    "center": "33.3646,-105.6434",
    "lat": 33.3646,
    "lng": -105.6434,
    "region": "Southern New Mexico - Las Cruces Area"
  },
  {
    "name": "Ruidoso Downs",
    "slug": "ruidoso-downs-nm",
    "county": "Lincoln",
    "center": "33.3311,-105.5969",
    "lat": 33.3311,
    "lng": -105.5969,
    "region": "Southern New Mexico - Las Cruces Area"
  },
  {
    "name": "Sacramento",
    "slug": "sacramento-nm",
    "county": "Otero",
    "center": "32.7917,-105.5723",
    "lat": 32.7917,
    "lng": -105.5723,
    "region": "Southern New Mexico - Las Cruces Area"
  },
  {
    "name": "Sagar",
    "slug": "sagar-nm",
    "county": "McKinley",
    "center": "35.2474,-108.767",
    "lat": 35.2474,
    "lng": -108.767,
    "region": "Western New Mexico - Gallup Area"
  },
  {
    "name": "Salem",
    "slug": "salem-nm",
    "county": "Doña Ana",
    "center": "32.7121,-107.2056",
    "lat": 32.7121,
    "lng": -107.2056,
    "region": "Southern New Mexico - Las Cruces Area"
  },
  {
    "name": "San Acacia",
    "slug": "san-acacia-nm",
    "county": "Socorro",
    "center": "34.255,-106.9023",
    "lat": 34.255,
    "lng": -106.9023,
    "region": "Central New Mexico - Socorro Area"
  },
  {
    "name": "San Antonio",
    "slug": "san-antonio-nm",
    "county": "Socorro",
    "center": "33.9161,-106.87",
    "lat": 33.9161,
    "lng": -106.87,
    "region": "Central New Mexico - Socorro Area"
  },
  {
    "name": "San Antonito",
    "slug": "san-antonito-nm",
    "county": "Bernalillo",
    "center": "35.1574,-106.3475",
    "lat": 35.1574,
    "lng": -106.3475,
    "region": "Greater Albuquerque Area"
  },
  {
    "name": "San Cristobal",
    "slug": "san-cristobal-nm",
    "county": "Taos",
    "center": "36.6101,-105.6319",
    "lat": 36.6101,
    "lng": -105.6319,
    "region": "North Central New Mexico - Taos Area"
  },
  {
    "name": "San Felipe Pueblo",
    "slug": "san felipe-pueblo-nm",
    "county": "Sandoval",
    "center": "35.4338,-106.425",
    "lat": 35.4338,
    "lng": -106.425,
    "region": "Greater Albuquerque Area"
  },
  {
    "name": "San Fidel",
    "slug": "san-fidel-nm",
    "county": "Cibola",
    "center": "35.1025,-107.5975",
    "lat": 35.1025,
    "lng": -107.5975,
    "region": "Western New Mexico - Gallup Area"
  },
  {
    "name": "San Ildefonso Pueblo",
    "slug": "san ildefonso-pueblo-nm",
    "county": "Santa Fe",
    "center": "35.8955,-106.1225",
    "lat": 35.8955,
    "lng": -106.1225,
    "region": "Santa Fe/Las Vegas Region"
  },
  {
    "name": "San Jon",
    "slug": "san-jon-nm",
    "county": "Quay",
    "center": "35.1113,-103.3364",
    "lat": 35.1113,
    "lng": -103.3364,
    "region": "New Mexico Border Region - Clovis / Portales Area"
  },
  {
    "name": "San Jose",
    "slug": "san-jose-nm",
    "county": "Rio Arriba",
    "center": "36.0367,-106.1004",
    "lat": 36.0367,
    "lng": -106.1004,
    "region": "Santa Fe/Las Vegas Region"
  },
  {
    "name": "San Lorenzo",
    "slug": "san-lorenzo-nm",
    "county": "Grant",
    "center": "32.8086,-107.9221",
    "lat": 32.8086,
    "lng": -107.9221,
    "region": "Southwest New Mexico - Silver City Area"
  },
  {
    "name": "San Luis",
    "slug": "san-luis-nm",
    "county": "Sandoval",
    "center": "35.7009,-107.0431",
    "lat": 35.7009,
    "lng": -107.0431,
    "region": "Greater Albuquerque Area"
  },
  {
    "name": "San Mateo",
    "slug": "san-mateo-nm",
    "county": "Cibola",
    "center": "35.3381,-107.645",
    "lat": 35.3381,
    "lng": -107.645,
    "region": "Western New Mexico - Gallup Area"
  },
  {
    "name": "San Miguel",
    "slug": "san-miguel-nm",
    "county": "Doña Ana",
    "center": "32.1535,-106.7269",
    "lat": 32.1535,
    "lng": -106.7269,
    "region": "Southern New Mexico - Las Cruces Area"
  },
  {
    "name": "San Pablo",
    "slug": "san-pablo-nm",
    "county": "Doña Ana",
    "center": "32.2507,-106.7626",
    "lat": 32.2507,
    "lng": -106.7626,
    "region": "Southern New Mexico - Las Cruces Area"
  },
  {
    "name": "San Pedro",
    "slug": "san-pedro-nm",
    "county": "Santa Fe",
    "center": "35.228,-106.1848",
    "lat": 35.228,
    "lng": -106.1848,
    "region": ""
  },
  {
    "name": "San Rafael",
    "slug": "san-rafael-nm",
    "county": "Cibola",
    "center": "35.101,-107.8899",
    "lat": 35.101,
    "lng": -107.8899,
    "region": "Western New Mexico - Gallup Area"
  },
  {
    "name": "San Ysidro",
    "slug": "san-ysidro-nm",
    "county": "Doña Ana",
    "center": "32.3568,-106.8129",
    "lat": 32.3568,
    "lng": -106.8129,
    "region": "Southern New Mexico - Las Cruces Area"
  },
  {
    "name": "Sandia Heights",
    "slug": "sandia-heights-nm",
    "county": "Bernalillo",
    "center": "35.1747,-106.4884",
    "lat": 35.1747,
    "lng": -106.4884,
    "region": "Greater Albuquerque Area"
  },
  {
    "name": "Sandia Knolls",
    "slug": "sandia-knolls-nm",
    "county": "Bernalillo",
    "center": "35.1604,-106.2987",
    "lat": 35.1604,
    "lng": -106.2987,
    "region": "Greater Albuquerque Area"
  },
  {
    "name": "Sandia Park",
    "slug": "sandia-park-nm",
    "county": "Bernalillo",
    "center": "35.1649,-106.3657",
    "lat": 35.1649,
    "lng": -106.3657,
    "region": "Greater Albuquerque Area"
  },
  {
    "name": "Sanostee",
    "slug": "sanostee-nm",
    "county": "San Juan",
    "center": "36.4329,-108.873",
    "lat": 36.4329,
    "lng": -108.873,
    "region": "Northwest New Mexico - Farmington Area"
  },
  {
    "name": "Santa Ana Pueblo",
    "slug": "santa ana-pueblo-nm",
    "county": "Sandoval",
    "center": "35.3495,-106.5202",
    "lat": 35.3495,
    "lng": -106.5202,
    "region": "Greater Albuquerque Area"
  },
  {
    "name": "Santa Clara",
    "slug": "santa-clara-nm",
    "county": "Grant",
    "center": "32.7801,-108.1493",
    "lat": 32.7801,
    "lng": -108.1493,
    "region": "Southwest New Mexico - Silver City Area"
  },
  {
    "name": "Santa Clara Pueblo",
    "slug": "santa clara-pueblo-nm",
    "county": "Rio Arriba",
    "center": "35.9726,-106.0927",
    "lat": 35.9726,
    "lng": -106.0927,
    "region": "Santa Fe/Las Vegas Region"
  },
  {
    "name": "Santa Cruz",
    "slug": "santa-cruz-nm",
    "county": "Santa Fe",
    "center": "35.9939,-106.0359",
    "lat": 35.9939,
    "lng": -106.0359,
    "region": "Santa Fe/Las Vegas Region"
  },
  {
    "name": "Santa Fe",
    "slug": "santa-fe-nm",
    "county": "Santa Fe",
    "center": "35.6619,-105.9819",
    "lat": 35.6619,
    "lng": -105.9819,
    "region": "Santa Fe/Las Vegas Region"
  },
  {
    "name": "Santa Fe Foothills",
    "slug": "santa fe-foothills-nm",
    "county": "Santa Fe",
    "center": "35.6279,-105.898",
    "lat": 35.6279,
    "lng": -105.898,
    "region": "Santa Fe/Las Vegas Region"
  },
  {
    "name": "Santa Rosa",
    "slug": "santa-rosa-nm",
    "county": "Guadalupe",
    "center": "34.9361,-104.6769",
    "lat": 34.9361,
    "lng": -104.6769,
    "region": "New Mexico Border Region - Clovis / Portales Area"
  },
  {
    "name": "Santa Teresa",
    "slug": "santa-teresa-nm",
    "county": "Doña Ana",
    "center": "31.8701,-106.6714",
    "lat": 31.8701,
    "lng": -106.6714,
    "region": "Southern New Mexico - Las Cruces Area"
  },
  {
    "name": "Santo Domingo Pueblo",
    "slug": "santo domingo-pueblo-nm",
    "county": "Sandoval",
    "center": "35.5175,-106.367",
    "lat": 35.5175,
    "lng": -106.367,
    "region": "Greater Albuquerque Area"
  },
  {
    "name": "Sausal",
    "slug": "sausal-nm",
    "county": "Valencia",
    "center": "34.6803,-106.7589",
    "lat": 34.6803,
    "lng": -106.7589,
    "region": "Greater Albuquerque Area"
  },
  {
    "name": "Seama",
    "slug": "seama-nm",
    "county": "Cibola",
    "center": "35.0429,-107.5272",
    "lat": 35.0429,
    "lng": -107.5272,
    "region": "Western New Mexico - Gallup Area"
  },
  {
    "name": "Seboyeta",
    "slug": "seboyeta-nm",
    "county": "Cibola",
    "center": "35.2001,-107.3861",
    "lat": 35.2001,
    "lng": -107.3861,
    "region": "Greater Albuquerque Area"
  },
  {
    "name": "Sedillo",
    "slug": "sedillo-nm",
    "county": "Bernalillo",
    "center": "35.0906,-106.2869",
    "lat": 35.0906,
    "lng": -106.2869,
    "region": "Greater Albuquerque Area"
  },
  {
    "name": "Sena",
    "slug": "sena-nm",
    "county": "San Miguel",
    "center": "35.3036,-105.3913",
    "lat": 35.3036,
    "lng": -105.3913,
    "region": ""
  },
  {
    "name": "Seton Village",
    "slug": "seton-village-nm",
    "county": "Santa Fe",
    "center": "35.5999,-105.9334",
    "lat": 35.5999,
    "lng": -105.9334,
    "region": "Santa Fe/Las Vegas Region"
  },
  {
    "name": "Sheep Springs",
    "slug": "sheep-springs-nm",
    "county": "San Juan",
    "center": "36.1593,-108.6905",
    "lat": 36.1593,
    "lng": -108.6905,
    "region": "Northwest New Mexico - Farmington Area"
  },
  {
    "name": "Shiprock",
    "slug": "shiprock-nm",
    "county": "San Juan",
    "center": "36.7924,-108.7005",
    "lat": 36.7924,
    "lng": -108.7005,
    "region": "Northwest New Mexico - Farmington Area"
  },
  {
    "name": "Silver City",
    "slug": "silver-city-nm",
    "county": "Grant",
    "center": "32.7783,-108.2699",
    "lat": 32.7783,
    "lng": -108.2699,
    "region": "Southwest New Mexico - Silver City Area"
  },
  {
    "name": "Skyline-Ganipa",
    "slug": "skyline-ganipa-nm",
    "county": "Cibola",
    "center": "35.0361,-107.6162",
    "lat": 35.0361,
    "lng": -107.6162,
    "region": "Western New Mexico - Gallup Area"
  },
  {
    "name": "Socorro",
    "slug": "socorro-nm",
    "county": "Socorro",
    "center": "34.0543,-106.9065",
    "lat": 34.0543,
    "lng": -106.9065,
    "region": "Central New Mexico - Socorro Area"
  },
  {
    "name": "Soham",
    "slug": "soham-nm",
    "county": "San Miguel",
    "center": "35.4168,-105.4985",
    "lat": 35.4168,
    "lng": -105.4985,
    "region": "Santa Fe/Las Vegas Region"
  },
  {
    "name": "Sombrillo",
    "slug": "sombrillo-nm",
    "county": "Santa Fe",
    "center": "35.9802,-106.0352",
    "lat": 35.9802,
    "lng": -106.0352,
    "region": "Santa Fe/Las Vegas Region"
  },
  {
    "name": "South Acomita Village",
    "slug": "south acomita-village-nm",
    "county": "Cibola",
    "center": "35.0533,-107.5722",
    "lat": 35.0533,
    "lng": -107.5722,
    "region": "Western New Mexico - Gallup Area"
  },
  {
    "name": "South River",
    "slug": "south-river-nm",
    "county": "San Juan",
    "center": "36.7892,-108.06",
    "lat": 36.7892,
    "lng": -108.06,
    "region": "Northwest New Mexico - Farmington Area"
  },
  {
    "name": "South Valley",
    "slug": "south-valley-nm",
    "county": "Bernalillo",
    "center": "35.0093,-106.6819",
    "lat": 35.0093,
    "lng": -106.6819,
    "region": "Greater Albuquerque Area"
  },
  {
    "name": "Spencerville",
    "slug": "spencerville-nm",
    "county": "San Juan",
    "center": "36.8244,-108.0563",
    "lat": 36.8244,
    "lng": -108.0563,
    "region": "Northwest New Mexico - Farmington Area"
  },
  {
    "name": "Springer",
    "slug": "springer-nm",
    "county": "Colfax",
    "center": "36.3623,-104.5997",
    "lat": 36.3623,
    "lng": -104.5997,
    "region": "Northeast New Mexico - Raton / Clayton Area"
  },
  {
    "name": "Stanley",
    "slug": "stanley-nm",
    "county": "Santa Fe",
    "center": "35.1542,-105.9764",
    "lat": 35.1542,
    "lng": -105.9764,
    "region": ""
  },
  {
    "name": "Stoneridge",
    "slug": "stoneridge-nm",
    "county": "Cibola",
    "center": "35.3019,-108.1034",
    "lat": 35.3019,
    "lng": -108.1034,
    "region": "Western New Mexico - Gallup Area"
  },
  {
    "name": "Sundance",
    "slug": "sundance-nm",
    "county": "McKinley",
    "center": "35.5105,-108.6397",
    "lat": 35.5105,
    "lng": -108.6397,
    "region": "Western New Mexico - Gallup Area"
  },
  {
    "name": "Sunland Park",
    "slug": "sunland-park-nm",
    "county": "Doña Ana",
    "center": "31.8201,-106.5958",
    "lat": 31.8201,
    "lng": -106.5958,
    "region": "Southern New Mexico - Las Cruces Area"
  },
  {
    "name": "Sunlit Hills",
    "slug": "sunlit-hills-nm",
    "county": "Santa Fe",
    "center": "35.5957,-105.921",
    "lat": 35.5957,
    "lng": -105.921,
    "region": "Santa Fe/Las Vegas Region"
  },
  {
    "name": "Sunshine",
    "slug": "sunshine-nm",
    "county": "Luna",
    "center": "32.1344,-107.7838",
    "lat": 32.1344,
    "lng": -107.7838,
    "region": "Southwest New Mexico - Silver City Area"
  },
  {
    "name": "Tajique",
    "slug": "tajique-nm",
    "county": "Torrance",
    "center": "34.7601,-106.301",
    "lat": 34.7601,
    "lng": -106.301,
    "region": "Greater Albuquerque Area"
  },
  {
    "name": "Talpa",
    "slug": "talpa-nm",
    "county": "Taos",
    "center": "36.3421,-105.5923",
    "lat": 36.3421,
    "lng": -105.5923,
    "region": "North Central New Mexico - Taos Area"
  },
  {
    "name": "Tano Road",
    "slug": "tano-road-nm",
    "county": "Santa Fe",
    "center": "35.7374,-105.9819",
    "lat": 35.7374,
    "lng": -105.9819,
    "region": "Santa Fe/Las Vegas Region"
  },
  {
    "name": "Taos",
    "slug": "taos-nm",
    "county": "Taos",
    "center": "36.3871,-105.5803",
    "lat": 36.3871,
    "lng": -105.5803,
    "region": "North Central New Mexico - Taos Area"
  },
  {
    "name": "Taos Pueblo",
    "slug": "taos-pueblo-nm",
    "county": "Taos",
    "center": "36.4657,-105.5634",
    "lat": 36.4657,
    "lng": -105.5634,
    "region": "North Central New Mexico - Taos Area"
  },
  {
    "name": "Taos Ski Valley",
    "slug": "taos ski-valley-nm",
    "county": "Taos",
    "center": "36.5901,-105.437",
    "lat": 36.5901,
    "lng": -105.437,
    "region": "North Central New Mexico - Taos Area"
  },
  {
    "name": "Tatum",
    "slug": "tatum-nm",
    "county": "Lea",
    "center": "33.2553,-103.3112",
    "lat": 33.2553,
    "lng": -103.3112,
    "region": "Southeast New Mexico - Roswell / Carlsbad Area"
  },
  {
    "name": "Tecolote",
    "slug": "tecolote-nm",
    "county": "San Miguel",
    "center": "35.4604,-105.2842",
    "lat": 35.4604,
    "lng": -105.2842,
    "region": "Santa Fe/Las Vegas Region"
  },
  {
    "name": "Tecolotito",
    "slug": "tecolotito-nm",
    "county": "San Miguel",
    "center": "35.2307,-105.1631",
    "lat": 35.2307,
    "lng": -105.1631,
    "region": ""
  },
  {
    "name": "Tesuque",
    "slug": "tesuque-nm",
    "county": "Santa Fe",
    "center": "35.7487,-105.9209",
    "lat": 35.7487,
    "lng": -105.9209,
    "region": "Santa Fe/Las Vegas Region"
  },
  {
    "name": "Tesuque Pueblo",
    "slug": "tesuque-pueblo-nm",
    "county": "Santa Fe",
    "center": "35.809,-105.9752",
    "lat": 35.809,
    "lng": -105.9752,
    "region": "Santa Fe/Las Vegas Region"
  },
  {
    "name": "Texico",
    "slug": "texico-nm",
    "county": "Curry",
    "center": "34.3897,-103.0513",
    "lat": 34.3897,
    "lng": -103.0513,
    "region": ""
  },
  {
    "name": "Thoreau",
    "slug": "thoreau-nm",
    "county": "McKinley",
    "center": "35.4251,-108.2012",
    "lat": 35.4251,
    "lng": -108.2012,
    "region": "Western New Mexico - Gallup Area"
  },
  {
    "name": "Thunder Mountain",
    "slug": "thunder-mountain-nm",
    "county": "Santa Fe",
    "center": "35.1009,-106.2278",
    "lat": 35.1009,
    "lng": -106.2278,
    "region": ""
  },
  {
    "name": "Tierra Amarilla",
    "slug": "tierra-amarilla-nm",
    "county": "Rio Arriba",
    "center": "36.7061,-106.5599",
    "lat": 36.7061,
    "lng": -106.5599,
    "region": "Northern New Mexico - Chama/Dulce Area"
  },
  {
    "name": "Tijeras",
    "slug": "tijeras-nm",
    "county": "Bernalillo",
    "center": "35.0884,-106.3761",
    "lat": 35.0884,
    "lng": -106.3761,
    "region": "Greater Albuquerque Area"
  },
  {
    "name": "Timberlake",
    "slug": "timberlake-nm",
    "county": "McKinley",
    "center": "35.2012,-108.4843",
    "lat": 35.2012,
    "lng": -108.4843,
    "region": "Western New Mexico - Gallup Area"
  },
  {
    "name": "Timberon",
    "slug": "timberon-nm",
    "county": "Otero",
    "center": "32.636,-105.6925",
    "lat": 32.636,
    "lng": -105.6925,
    "region": "Southern New Mexico - Las Cruces Area"
  },
  {
    "name": "Tohatchi",
    "slug": "tohatchi-nm",
    "county": "McKinley",
    "center": "35.8423,-108.7503",
    "lat": 35.8423,
    "lng": -108.7503,
    "region": "Western New Mexico - Gallup Area"
  },
  {
    "name": "Tome",
    "slug": "tome-nm",
    "county": "Valencia",
    "center": "34.739,-106.7251",
    "lat": 34.739,
    "lng": -106.7251,
    "region": "Greater Albuquerque Area"
  },
  {
    "name": "Torreon",
    "slug": "torreon-nm",
    "county": "Torrance",
    "center": "34.7242,-106.3008",
    "lat": 34.7242,
    "lng": -106.3008,
    "region": "Greater Albuquerque Area"
  },
  {
    "name": "Tortugas",
    "slug": "tortugas-nm",
    "county": "Doña Ana",
    "center": "32.2697,-106.7546",
    "lat": 32.2697,
    "lng": -106.7546,
    "region": "Southern New Mexico - Las Cruces Area"
  },
  {
    "name": "Totah Vista",
    "slug": "totah-vista-nm",
    "county": "San Juan",
    "center": "36.7113,-108.2035",
    "lat": 36.7113,
    "lng": -108.2035,
    "region": "Northwest New Mexico - Farmington Area"
  },
  {
    "name": "Tres Arroyos",
    "slug": "tres-arroyos-nm",
    "county": "Santa Fe",
    "center": "35.6799,-106.0398",
    "lat": 35.6799,
    "lng": -106.0398,
    "region": "Santa Fe/Las Vegas Region"
  },
  {
    "name": "Trout Valley",
    "slug": "trout-valley-nm",
    "county": "Grant",
    "center": "33.0363,-108.1893",
    "lat": 33.0363,
    "lng": -108.1893,
    "region": "Southwest New Mexico - Silver City Area"
  },
  {
    "name": "Truchas",
    "slug": "truchas-nm",
    "county": "Rio Arriba",
    "center": "36.0338,-105.8095",
    "lat": 36.0338,
    "lng": -105.8095,
    "region": "Santa Fe/Las Vegas Region"
  },
  {
    "name": "Truth or Consequences",
    "slug": "truth or-consequences-nm",
    "county": "Sierra",
    "center": "33.1864,-107.2589",
    "lat": 33.1864,
    "lng": -107.2589,
    "region": "Southern New Mexico - Las Cruces Area"
  },
  {
    "name": "Tse Bonito",
    "slug": "tse-bonito-nm",
    "county": "McKinley",
    "center": "35.6466,-109.007",
    "lat": 35.6466,
    "lng": -109.007,
    "region": "Western New Mexico - Gallup Area"
  },
  {
    "name": "Tucumcari",
    "slug": "tucumcari-nm",
    "county": "Quay",
    "center": "35.17,-103.7046",
    "lat": 35.17,
    "lng": -103.7046,
    "region": "New Mexico Border Region - Clovis / Portales Area"
  },
  {
    "name": "Tularosa",
    "slug": "tularosa-nm",
    "county": "Otero",
    "center": "33.0753,-106.0175",
    "lat": 33.0753,
    "lng": -106.0175,
    "region": "Southern New Mexico - Las Cruces Area"
  },
  {
    "name": "Turley",
    "slug": "turley-nm",
    "county": "San Juan",
    "center": "36.7366,-107.79",
    "lat": 36.7366,
    "lng": -107.79,
    "region": "Northwest New Mexico - Farmington Area"
  },
  {
    "name": "Twin Forks",
    "slug": "twin-forks-nm",
    "county": "Otero",
    "center": "32.9463,-105.6374",
    "lat": 32.9463,
    "lng": -105.6374,
    "region": "Southern New Mexico - Las Cruces Area"
  },
  {
    "name": "Twin Lakes",
    "slug": "twin-lakes-nm",
    "county": "McKinley",
    "center": "35.6833,-108.7709",
    "lat": 35.6833,
    "lng": -108.7709,
    "region": "Western New Mexico - Gallup Area"
  },
  {
    "name": "Tyrone",
    "slug": "tyrone-nm",
    "county": "Grant",
    "center": "32.7099,-108.3028",
    "lat": 32.7099,
    "lng": -108.3028,
    "region": "Southwest New Mexico - Silver City Area"
  },
  {
    "name": "University Park",
    "slug": "university-park-nm",
    "county": "Doña Ana",
    "center": "32.2767,-106.7462",
    "lat": 32.2767,
    "lng": -106.7462,
    "region": "Southern New Mexico - Las Cruces Area"
  },
  {
    "name": "Upper Fruitland",
    "slug": "upper-fruitland-nm",
    "county": "San Juan",
    "center": "36.7204,-108.3236",
    "lat": 36.7204,
    "lng": -108.3236,
    "region": "Northwest New Mexico - Farmington Area"
  },
  {
    "name": "Ute Park",
    "slug": "ute-park-nm",
    "county": "Colfax",
    "center": "36.5467,-105.1038",
    "lat": 36.5467,
    "lng": -105.1038,
    "region": "North Central New Mexico - Taos Area"
  },
  {
    "name": "Vadito",
    "slug": "vadito-nm",
    "county": "Taos",
    "center": "36.1929,-105.6755",
    "lat": 36.1929,
    "lng": -105.6755,
    "region": "North Central New Mexico - Taos Area"
  },
  {
    "name": "Vado",
    "slug": "vado-nm",
    "county": "Doña Ana",
    "center": "32.1278,-106.6571",
    "lat": 32.1278,
    "lng": -106.6571,
    "region": "Southern New Mexico - Las Cruces Area"
  },
  {
    "name": "Valencia",
    "slug": "valencia-nm",
    "county": "Valencia",
    "center": "34.8053,-106.6868",
    "lat": 34.8053,
    "lng": -106.6868,
    "region": "Greater Albuquerque Area"
  },
  {
    "name": "Valencia",
    "slug": "valencia-nm",
    "county": "Santa Fe",
    "center": "35.578,-105.7908",
    "lat": 35.578,
    "lng": -105.7908,
    "region": "Santa Fe/Las Vegas Region"
  },
  {
    "name": "Valle Vista",
    "slug": "valle-vista-nm",
    "county": "Santa Fe",
    "center": "35.5841,-106.0584",
    "lat": 35.5841,
    "lng": -106.0584,
    "region": "Santa Fe/Las Vegas Region"
  },
  {
    "name": "Vanderwagen",
    "slug": "vanderwagen-nm",
    "county": "McKinley",
    "center": "35.2714,-108.7517",
    "lat": 35.2714,
    "lng": -108.7517,
    "region": "Western New Mexico - Gallup Area"
  },
  {
    "name": "Vaughn",
    "slug": "vaughn-nm",
    "county": "Guadalupe",
    "center": "34.6072,-105.2126",
    "lat": 34.6072,
    "lng": -105.2126,
    "region": ""
  },
  {
    "name": "Veguita",
    "slug": "veguita-nm",
    "county": "Socorro",
    "center": "34.5146,-106.7679",
    "lat": 34.5146,
    "lng": -106.7679,
    "region": "Central New Mexico - Socorro Area"
  },
  {
    "name": "Velarde",
    "slug": "velarde-nm",
    "county": "Rio Arriba",
    "center": "36.1608,-105.9659",
    "lat": 36.1608,
    "lng": -105.9659,
    "region": "Santa Fe/Las Vegas Region"
  },
  {
    "name": "Ventura",
    "slug": "ventura-nm",
    "county": "Luna",
    "center": "32.2438,-107.6832",
    "lat": 32.2438,
    "lng": -107.6832,
    "region": "Southwest New Mexico - Silver City Area"
  },
  {
    "name": "Villanueva",
    "slug": "villanueva-nm",
    "county": "San Miguel",
    "center": "35.2659,-105.3602",
    "lat": 35.2659,
    "lng": -105.3602,
    "region": ""
  },
  {
    "name": "Virden",
    "slug": "virden-nm",
    "county": "Hidalgo",
    "center": "32.689,-109.0015",
    "lat": 32.689,
    "lng": -109.0015,
    "region": "Southwest New Mexico - Silver City Area"
  },
  {
    "name": "Wagon Mound",
    "slug": "wagon-mound-nm",
    "county": "Mora",
    "center": "36.0048,-104.7091",
    "lat": 36.0048,
    "lng": -104.7091,
    "region": "Northeast New Mexico - Raton / Clayton Area"
  },
  {
    "name": "Waterflow",
    "slug": "waterflow-nm",
    "county": "San Juan",
    "center": "36.7568,-108.4673",
    "lat": 36.7568,
    "lng": -108.4673,
    "region": "Northwest New Mexico - Farmington Area"
  },
  {
    "name": "Watrous",
    "slug": "watrous-nm",
    "county": "Mora",
    "center": "35.79,-104.9821",
    "lat": 35.79,
    "lng": -104.9821,
    "region": "Santa Fe/Las Vegas Region"
  },
  {
    "name": "Weed",
    "slug": "weed-nm",
    "county": "Otero",
    "center": "32.8025,-105.5248",
    "lat": 32.8025,
    "lng": -105.5248,
    "region": "Southern New Mexico - Las Cruces Area"
  },
  {
    "name": "West Hammond",
    "slug": "west-hammond-nm",
    "county": "San Juan",
    "center": "36.6807,-108.0433",
    "lat": 36.6807,
    "lng": -108.0433,
    "region": "Northwest New Mexico - Farmington Area"
  },
  {
    "name": "White Cliffs",
    "slug": "white-cliffs-nm",
    "county": "McKinley",
    "center": "35.5491,-108.6644",
    "lat": 35.5491,
    "lng": -108.6644,
    "region": "Western New Mexico - Gallup Area"
  },
  {
    "name": "White Rock",
    "slug": "white-rock-nm",
    "county": "Los Alamos",
    "center": "35.8075,-106.2067",
    "lat": 35.8075,
    "lng": -106.2067,
    "region": "Santa Fe/Las Vegas Region"
  },
  {
    "name": "White Sands",
    "slug": "white-sands-nm",
    "county": "Doña Ana",
    "center": "32.3804,-106.4791",
    "lat": 32.3804,
    "lng": -106.4791,
    "region": "Southern New Mexico - Las Cruces Area"
  },
  {
    "name": "White Signal",
    "slug": "white-signal-nm",
    "county": "Grant",
    "center": "32.5724,-108.3512",
    "lat": 32.5724,
    "lng": -108.3512,
    "region": "Southwest New Mexico - Silver City Area"
  },
  {
    "name": "Whites City",
    "slug": "whites-city-nm",
    "county": "Eddy",
    "center": "32.1767,-104.3739",
    "lat": 32.1767,
    "lng": -104.3739,
    "region": "Southeast New Mexico - Roswell / Carlsbad Area"
  },
  {
    "name": "Willard",
    "slug": "willard-nm",
    "county": "Torrance",
    "center": "34.5948,-106.0325",
    "lat": 34.5948,
    "lng": -106.0325,
    "region": ""
  },
  {
    "name": "Williams Acres",
    "slug": "williams-acres-nm",
    "county": "McKinley",
    "center": "35.4969,-108.8699",
    "lat": 35.4969,
    "lng": -108.8699,
    "region": "Western New Mexico - Gallup Area"
  },
  {
    "name": "Williamsburg",
    "slug": "williamsburg-nm",
    "county": "Sierra",
    "center": "33.1158,-107.2951",
    "lat": 33.1158,
    "lng": -107.2951,
    "region": "Southern New Mexico - Las Cruces Area"
  },
  {
    "name": "Windmill",
    "slug": "windmill-nm",
    "county": "Hidalgo",
    "center": "31.9769,-108.6315",
    "lat": 31.9769,
    "lng": -108.6315,
    "region": "Southwest New Mexico - Silver City Area"
  },
  {
    "name": "Winston",
    "slug": "winston-nm",
    "county": "Sierra",
    "center": "33.346,-107.6488",
    "lat": 33.346,
    "lng": -107.6488,
    "region": "Southwest New Mexico - Silver City Area"
  },
  {
    "name": "Yah-ta-hey",
    "slug": "yah-ta-hey-nm",
    "county": "McKinley",
    "center": "35.6291,-108.7927",
    "lat": 35.6291,
    "lng": -108.7927,
    "region": "Western New Mexico - Gallup Area"
  },
  {
    "name": "Youngsville",
    "slug": "youngsville-nm",
    "county": "Rio Arriba",
    "center": "36.1928,-106.566",
    "lat": 36.1928,
    "lng": -106.566,
    "region": "Northern New Mexico - Chama/Dulce Area"
  },
  {
    "name": "Zia Pueblo",
    "slug": "zia-pueblo-nm",
    "county": "Sandoval",
    "center": "35.52,-106.7149",
    "lat": 35.52,
    "lng": -106.7149,
    "region": "Greater Albuquerque Area"
  },
  {
    "name": "Zuni Pueblo",
    "slug": "zuni-pueblo-nm",
    "county": "McKinley",
    "center": "35.0693,-108.8558",
    "lat": 35.0693,
    "lng": -108.8558,
    "region": "Western New Mexico - Gallup Area"
  }
]
